timestamp_ms,x,y,z,roll,pitch,yaw,target_x,target_y,target_z,target_yaw
1746109896067.000000,-0.482106,-0.201688,0.844481,0.292998,-0.091900,-0.304244,0.000000,0.000000,1.000000,0.000000
1746109962244.000000,-0.621751,-0.458171,0.855988,0.292938,-0.057695,-0.176116,0.000000,0.000000,1.000000,0.000000
1746110088592.000000,-0.726611,-0.500171,0.841118,0.337104,-0.026998,-0.109532,0.000000,0.000000,1.000000,0.000000
1746110088694.000000,-0.726440,-0.501332,0.843189,0.358270,-0.030411,-0.116954,0.000000,0.000000,1.000000,0.000000
1746110088794.000000,-0.725652,-0.502163,0.845511,0.357963,-0.035816,-0.125871,0.000000,0.000000,1.000000,0.000000
1746110088895.000000,-0.726411,-0.503439,0.846055,0.350009,-0.054435,-0.124493,0.000000,0.000000,1.000000,0.000000
1746110088995.000000,-0.725568,-0.504889,0.846977,0.342094,-0.045717,-0.114810,0.000000,0.000000,1.000000,0.000000
1746110089095.000000,-0.725825,-0.505577,0.848309,0.348050,-0.041358,-0.107725,0.000000,0.000000,1.000000,0.000000
1746110089196.000000,-0.724534,-0.507540,0.850105,0.342448,-0.027671,-0.100334,0.000000,0.000000,1.000000,0.000000
1746110089296.000000,-0.724231,-0.508675,0.850822,0.347324,-0.043261,-0.111550,0.000000,0.000000,1.000000,0.000000
1746110089396.000000,-0.723501,-0.510199,0.853162,0.336884,-0.039617,-0.115335,0.000000,0.000000,1.000000,0.000000
1746110089496.000000,-0.721119,-0.511791,0.855851,0.349348,-0.042575,-0.128258,0.000000,0.000000,1.000000,0.000000
1746110089597.000000,-0.719681,-0.512716,0.858097,0.333699,-0.044245,-0.119852,0.000000,0.000000,1.000000,0.000000
1746110089697.000000,-0.719228,-0.514573,0.858252,0.331708,-0.040076,-0.110195,0.000000,0.000000,1.000000,0.000000
1746110089797.000000,-0.716340,-0.515042,0.860079,0.338973,-0.028716,-0.125749,0.000000,0.000000,1.000000,0.000000
1746110089898.000000,-0.714141,-0.515296,0.860301,0.322638,-0.019833,-0.115115,0.000000,0.000000,1.000000,0.000000
1746110089998.000000,-0.711440,-0.513374,0.859288,0.315751,-0.035714,-0.113279,0.000000,0.000000,1.000000,0.000000
1746110090098.000000,-0.707087,-0.511391,0.859507,0.323512,-0.037080,-0.129288,0.000000,0.000000,1.000000,0.000000
1746110090199.000000,-0.703733,-0.506991,0.858177,0.322832,-0.032665,-0.117802,0.000000,0.000000,1.000000,0.000000
1746110090299.000000,-0.698597,-0.502279,0.857335,0.320001,-0.026593,-0.109935,0.000000,0.000000,1.000000,0.000000
1746110090399.000000,-0.692448,-0.497477,0.856339,0.316007,-0.027690,-0.106370,0.000000,0.000000,1.000000,0.000000
1746110090499.000000,-0.687530,-0.490914,0.854809,0.323631,-0.028576,-0.099852,0.000000,0.000000,1.000000,0.000000
1746110090600.000000,-0.682398,-0.483677,0.853126,0.319509,-0.031928,-0.099070,0.000000,0.000000,1.000000,0.000000
1746110090700.000000,-0.677668,-0.474446,0.851646,0.314574,-0.011600,-0.110151,0.000000,0.000000,1.000000,0.000000
1746110090800.000000,-0.675036,-0.465009,0.848880,0.325639,-0.020065,-0.093383,0.000000,0.000000,1.000000,0.000000
1746110090900.000000,-0.671166,-0.455286,0.846842,0.318969,-0.015374,-0.095823,0.000000,0.000000,1.000000,0.000000
1746110091000.000000,-0.668470,-0.443705,0.843636,0.319577,-0.014708,-0.100394,0.000000,0.000000,1.000000,0.000000
1746110091101.000000,-0.666632,-0.431891,0.840297,0.320969,-0.009954,-0.096734,0.000000,0.000000,1.000000,0.000000
1746110091201.000000,-0.663442,-0.419636,0.837369,0.332165,-0.015858,-0.100962,0.000000,0.000000,1.000000,0.000000
1746110091301.000000,-0.660333,-0.407812,0.834202,0.318223,-0.010418,-0.093082,0.000000,0.000000,1.000000,0.000000
1746110091401.000000,-0.656624,-0.396189,0.831170,0.322952,-0.010796,-0.101713,0.000000,0.000000,1.000000,0.000000
1746110091502.000000,-0.654685,-0.387384,0.828748,0.319221,-0.010701,-0.091560,0.000000,0.000000,1.000000,0.000000
1746110091602.000000,-0.649264,-0.371512,0.824352,0.328997,-0.013944,-0.101235,0.000000,0.000000,1.000000,0.000000
1746110091702.000000,-0.644631,-0.360069,0.820445,0.329070,-0.016724,-0.090308,0.000000,0.000000,1.000000,0.000000
1746110091803.000000,-0.640208,-0.348434,0.815902,0.326083,-0.033722,-0.098395,0.000000,0.000000,1.000000,0.000000
1746110091903.000000,-0.635092,-0.337632,0.810837,0.313324,-0.017054,-0.098948,0.000000,0.000000,1.000000,0.000000
1746110092003.000000,-0.629558,-0.327468,0.806803,0.317895,-0.018691,-0.095012,0.000000,0.000000,1.000000,0.000000
1746110092104.000000,-0.624690,-0.316365,0.802544,0.315721,-0.022998,-0.099728,0.000000,0.000000,1.000000,0.000000
1746110092204.000000,-0.619744,-0.305114,0.798352,0.320689,-0.019952,-0.095089,0.000000,0.000000,1.000000,0.000000
1746110092304.000000,-0.614345,-0.294228,0.794055,0.312543,-0.016330,-0.101325,0.000000,0.000000,1.000000,0.000000
1746110092404.000000,-0.609418,-0.283911,0.788943,0.315103,-0.023896,-0.095578,0.000000,0.000000,1.000000,0.000000
1746110092505.000000,-0.603949,-0.272896,0.783885,0.321551,-0.023812,-0.096267,0.000000,0.000000,1.000000,0.000000
1746110092605.000000,-0.599165,-0.261590,0.777690,0.318368,-0.023946,-0.097480,0.000000,0.000000,1.000000,0.000000
1746110092705.000000,-0.596590,-0.256358,0.774288,0.325109,-0.019398,-0.097782,0.000000,0.000000,1.000000,0.000000
1746110092806.000000,-0.588029,-0.239074,0.763405,0.320805,-0.027474,-0.096033,0.000000,0.000000,1.000000,0.000000
1746110092906.000000,-0.582411,-0.228326,0.756224,0.319958,-0.027852,-0.095302,0.000000,0.000000,1.000000,0.000000
1746110093006.000000,-0.576932,-0.216795,0.748853,0.318443,-0.024513,-0.100705,0.000000,0.000000,1.000000,0.000000
1746110093107.000000,-0.571651,-0.205838,0.741908,0.314627,-0.023180,-0.098776,0.000000,0.000000,1.000000,0.000000
1746110093207.000000,-0.566225,-0.194542,0.736198,0.307420,-0.027932,-0.094599,0.000000,0.000000,1.000000,0.000000
1746110093307.000000,-0.561851,-0.183028,0.730114,0.317697,-0.028938,-0.104201,0.000000,0.000000,1.000000,0.000000
1746110093408.000000,-0.558620,-0.175785,0.726880,0.314160,-0.025963,-0.093915,0.000000,0.000000,1.000000,0.000000
1746110093508.000000,-0.553855,-0.164002,0.720850,0.320381,-0.029839,-0.095215,0.000000,0.000000,1.000000,0.000000
1746110093608.000000,-0.549361,-0.151964,0.714918,0.329842,-0.033780,-0.109362,0.000000,0.000000,1.000000,0.000000
1746110093709.000000,-0.544589,-0.139387,0.708323,0.322648,-0.026429,-0.107201,0.000000,0.000000,1.000000,0.000000
1746110093809.000000,-0.539339,-0.126947,0.702076,0.323619,-0.035591,-0.103391,0.000000,0.000000,1.000000,0.000000
1746110093909.000000,-0.534350,-0.114866,0.695545,0.332301,-0.039051,-0.104892,0.000000,0.000000,1.000000,0.000000
1746110094010.000000,-0.528357,-0.102534,0.688607,0.329763,-0.036816,-0.103874,0.000000,0.000000,1.000000,0.000000
1746110094110.000000,-0.522963,-0.091609,0.681496,0.331355,-0.033179,-0.095829,0.000000,0.000000,1.000000,0.000000
1746110094210.000000,-0.515978,-0.078404,0.674704,0.337359,-0.036609,-0.108513,0.000000,0.000000,1.000000,0.000000
1746110094311.000000,-0.511521,-0.069278,0.664906,0.323298,-0.038958,-0.100790,0.000000,0.000000,1.000000,0.000000
1746110094411.000000,-0.505425,-0.059708,0.656734,0.326464,-0.037661,-0.099503,0.000000,0.000000,1.000000,0.000000
1746110094511.000000,-0.499502,-0.050625,0.648763,0.318356,-0.043001,-0.099522,0.000000,0.000000,1.000000,0.000000
1746110094612.000000,-0.493817,-0.042302,0.641010,0.319890,-0.039541,-0.094770,0.000000,0.000000,1.000000,0.000000
1746110094712.000000,-0.487537,-0.033141,0.632444,0.320109,-0.039748,-0.101254,0.000000,0.000000,1.000000,0.000000
1746110094812.000000,-0.481736,-0.025226,0.624803,0.318642,-0.042378,-0.095137,0.000000,0.000000,1.000000,0.000000
1746110094913.000000,-0.476004,-0.016996,0.617452,0.306611,-0.047005,-0.098537,0.000000,0.000000,1.000000,0.000000
1746110095013.000000,-0.470850,-0.008844,0.609924,0.310028,-0.045451,-0.094911,0.000000,0.000000,1.000000,0.000000
1746110095113.000000,-0.466340,-0.001153,0.603613,0.317497,-0.055504,-0.102498,0.000000,0.000000,1.000000,0.000000
1746110095214.000000,-0.462174,0.007323,0.597000,0.321027,-0.044099,-0.095604,0.000000,0.000000,1.000000,0.000000
1746110095314.000000,-0.457825,0.014796,0.590234,0.315321,-0.035778,-0.093917,0.000000,0.000000,1.000000,0.000000
1746110095414.000000,-0.453522,0.022753,0.583039,0.332335,-0.040422,-0.097191,0.000000,0.000000,1.000000,0.000000
1746110095515.000000,-0.449191,0.030497,0.575864,0.328410,-0.048622,-0.098542,0.000000,0.000000,1.000000,0.000000
1746110095615.000000,-0.445223,0.038386,0.568221,0.325961,-0.045979,-0.104962,0.000000,0.000000,1.000000,0.000000
1746110095715.000000,-0.441456,0.045836,0.560776,0.334456,-0.047021,-0.098889,0.000000,0.000000,1.000000,0.000000
1746110095816.000000,-0.437620,0.053163,0.552712,0.319334,-0.043837,-0.097742,0.000000,0.000000,1.000000,0.000000
1746110095916.000000,-0.434749,0.060112,0.544971,0.328962,-0.045125,-0.099112,0.000000,0.000000,1.000000,0.000000
1746110096016.000000,-0.432354,0.067448,0.537445,0.337796,-0.047737,-0.101538,0.000000,0.000000,1.000000,0.000000
1746110096116.000000,-0.430584,0.074379,0.530794,0.319621,-0.039098,-0.105975,0.000000,0.000000,1.000000,0.000000
1746110096216.000000,-0.429686,0.081570,0.524078,0.323309,-0.031295,-0.086715,0.000000,0.000000,1.000000,0.000000
1746110096316.000000,-0.428678,0.089070,0.516597,0.329060,-0.036810,-0.099106,0.000000,0.000000,1.000000,0.000000
1746110096417.000000,-0.427972,0.096061,0.509997,0.334085,-0.038264,-0.093309,0.000000,0.000000,1.000000,0.000000
1746110096517.000000,-0.426977,0.102991,0.502345,0.326144,-0.043898,-0.099492,0.000000,0.000000,1.000000,0.000000
1746110096617.000000,-0.426174,0.110333,0.494913,0.329346,-0.038490,-0.100129,0.000000,0.000000,1.000000,0.000000
1746110096717.000000,-0.425687,0.117356,0.487699,0.334449,-0.034525,-0.106257,0.000000,0.000000,1.000000,0.000000
1746110096818.000000,-0.425188,0.124096,0.479985,0.337592,-0.045833,-0.099487,0.000000,0.000000,1.000000,0.000000
1746110096918.000000,-0.425040,0.132095,0.471879,0.331177,-0.040582,-0.094200,0.000000,0.000000,1.000000,0.000000
1746110097018.000000,-0.424864,0.139204,0.465000,0.339171,-0.041828,-0.094688,0.000000,0.000000,1.000000,0.000000
1746110097119.000000,-0.424480,0.146239,0.457348,0.336306,-0.047224,-0.101728,0.000000,0.000000,1.000000,0.000000
1746110097219.000000,-0.424810,0.153578,0.450235,0.340279,-0.039781,-0.106038,0.000000,0.000000,1.000000,0.000000
1746110097319.000000,-0.425378,0.160673,0.442642,0.343059,-0.045695,-0.104375,0.000000,0.000000,1.000000,0.000000
1746110097420.000000,-0.426373,0.168125,0.434904,0.335455,-0.046870,-0.101114,0.000000,0.000000,1.000000,0.000000
1746110097520.000000,-0.427610,0.176138,0.426401,0.343324,-0.042336,-0.099417,0.000000,0.000000,1.000000,0.000000
1746110097620.000000,-0.429446,0.184557,0.418222,0.357570,-0.038947,-0.099731,0.000000,0.000000,1.000000,0.000000
1746110097720.000000,-0.431248,0.193121,0.408875,0.351329,-0.040141,-0.102135,0.000000,0.000000,1.000000,0.000000
1746110097821.000000,-0.433090,0.200999,0.399792,0.351668,-0.039067,-0.097326,0.000000,0.000000,1.000000,0.000000
1746110097921.000000,-0.434959,0.208108,0.390427,0.351575,-0.039943,-0.101331,0.000000,0.000000,1.000000,0.000000
1746110098021.000000,-0.436828,0.214772,0.381763,0.353988,-0.039045,-0.095679,0.000000,0.000000,1.000000,0.000000
1746110098121.000000,-0.439015,0.220938,0.374914,0.343647,-0.040195,-0.096890,0.000000,0.000000,1.000000,0.000000
1746110098222.000000,-0.441195,0.226578,0.369252,0.356859,-0.040167,-0.097641,0.000000,0.000000,1.000000,0.000000
1746110098322.000000,-0.443215,0.231291,0.365546,0.349897,-0.041904,-0.095156,0.000000,0.000000,1.000000,0.000000
1746110098422.000000,-0.444402,0.234760,0.364213,0.340943,-0.043309,-0.100213,0.000000,0.000000,1.000000,0.000000
1746110098522.000000,-0.447051,0.239996,0.363897,0.351177,-0.040729,-0.100560,0.000000,0.000000,1.000000,0.000000
1746110098623.000000,-0.450501,0.246112,0.366232,0.354247,-0.043204,-0.100064,0.000000,0.000000,1.000000,0.000000
1746110098723.000000,-0.452688,0.249277,0.368298,0.353554,-0.039202,-0.094897,0.000000,0.000000,1.000000,0.000000
1746110098824.000000,-0.455508,0.253048,0.371184,0.349872,-0.040833,-0.095027,0.000000,0.000000,1.000000,0.000000
1746110098924.000000,-0.458267,0.256700,0.373303,0.352717,-0.047134,-0.098432,0.000000,0.000000,1.000000,0.000000
1746110099024.000000,-0.461221,0.259787,0.375691,0.348915,-0.043768,-0.094761,0.000000,0.000000,1.000000,0.000000
1746110099125.000000,-0.464098,0.262162,0.377898,0.348052,-0.058362,-0.100955,0.000000,0.000000,1.000000,0.000000
1746110099225.000000,-0.467125,0.264207,0.379077,0.342227,-0.043446,-0.105749,0.000000,0.000000,1.000000,0.000000
1746110099326.000000,-0.470033,0.265286,0.380065,0.340926,-0.043607,-0.097159,0.000000,0.000000,1.000000,0.000000
1746110099426.000000,-0.473610,0.266619,0.381407,0.329427,-0.025318,-0.084170,0.000000,0.000000,1.000000,0.000000
1746110099526.000000,-0.476040,0.267178,0.382364,0.343008,-0.046578,-0.096491,0.000000,0.000000,1.000000,0.000000
1746110099626.000000,-0.479058,0.267514,0.383107,0.339247,-0.045549,-0.099177,0.000000,0.000000,1.000000,0.000000
1746110099727.000000,-0.481755,0.267436,0.384142,0.341419,-0.049759,-0.102007,0.000000,0.000000,1.000000,0.000000
1746110099827.000000,-0.484704,0.267878,0.385304,0.347835,-0.042693,-0.102210,0.000000,0.000000,1.000000,0.000000
1746110099927.000000,-0.487040,0.267564,0.385896,0.336383,-0.055350,-0.103775,0.000000,0.000000,1.000000,0.000000
1746110100027.000000,-0.489149,0.267871,0.386938,0.335659,-0.057416,-0.097715,0.000000,0.000000,1.000000,0.000000
1746110100127.000000,-0.491939,0.268146,0.386642,0.344607,-0.048892,-0.103153,0.000000,0.000000,1.000000,0.000000
1746110100228.000000,-0.494649,0.268642,0.387141,0.341252,-0.053386,-0.103344,0.000000,0.000000,1.000000,0.000000
1746110100328.000000,-0.497835,0.269505,0.387454,0.339592,-0.046327,-0.096332,0.000000,0.000000,1.000000,0.000000
1746110100428.000000,-0.500906,0.270757,0.388085,0.352323,-0.048442,-0.103603,0.000000,0.000000,1.000000,0.000000
1746110100528.000000,-0.503708,0.271500,0.388828,0.349154,-0.051995,-0.097340,0.000000,0.000000,1.000000,0.000000
1746110100629.000000,-0.507124,0.272800,0.389374,0.351237,-0.052264,-0.104804,0.000000,0.000000,1.000000,0.000000
1746110100729.000000,-0.510448,0.273908,0.390259,0.355784,-0.056592,-0.101643,0.000000,0.000000,1.000000,0.000000
1746110100829.000000,-0.514812,0.275133,0.391020,0.345858,-0.057712,-0.098840,0.000000,0.000000,1.000000,0.000000
1746110100929.000000,-0.518994,0.275597,0.391179,0.344661,-0.044048,-0.108764,0.000000,0.000000,1.000000,0.000000
1746110101030.000000,-0.523562,0.275907,0.390215,0.346677,-0.055118,-0.097868,0.000000,0.000000,1.000000,0.000000
1746110101130.000000,-0.528009,0.275863,0.388899,0.348814,-0.050390,-0.101571,0.000000,0.000000,1.000000,0.000000
1746110101230.000000,-0.532377,0.276158,0.388646,0.346241,-0.043455,-0.101130,0.000000,0.000000,1.000000,0.000000
1746110101331.000000,-0.536941,0.277729,0.387156,0.364227,-0.046139,-0.093159,0.000000,0.000000,1.000000,0.000000
1746110101431.000000,-0.540873,0.278288,0.387227,0.365833,-0.050740,-0.100908,0.000000,0.000000,1.000000,0.000000
1746110166699.000000,-0.494926,-0.388251,0.848806,0.267758,-0.040190,-0.086592,0.000000,0.000000,1.000000,0.000000
1746110166799.000000,-0.496012,-0.388451,0.849345,0.268718,-0.045292,-0.089212,0.000000,0.000000,1.000000,0.000000
1746110166900.000000,-0.497805,-0.388003,0.849807,0.259323,-0.037551,-0.081997,0.000000,0.000000,1.000000,0.000000
1746110167000.000000,-0.499083,-0.387762,0.850753,0.266072,-0.028291,-0.094452,0.000000,0.000000,1.000000,0.000000
1746110167100.000000,-0.500886,-0.386792,0.850626,0.270931,-0.039754,-0.092237,0.000000,0.000000,1.000000,0.000000
1746110167201.000000,-0.502898,-0.385780,0.850700,0.278853,-0.034833,-0.098164,0.000000,0.000000,1.000000,0.000000
1746110167301.000000,-0.505066,-0.384797,0.850614,0.279620,-0.035876,-0.095374,0.000000,0.000000,1.000000,0.000000
1746110167401.000000,-0.507576,-0.383722,0.849634,0.274672,-0.041544,-0.082397,0.000000,0.000000,1.000000,0.000000
1746110167502.000000,-0.509997,-0.382866,0.848458,0.278947,-0.042356,-0.095249,0.000000,0.000000,1.000000,0.000000
1746110167602.000000,-0.512662,-0.382136,0.846493,0.282333,-0.033723,-0.093031,0.000000,0.000000,1.000000,0.000000
1746110167702.000000,-0.515057,-0.380887,0.845187,0.270919,-0.031334,-0.081048,0.000000,0.000000,1.000000,0.000000
1746110167803.000000,-0.517443,-0.379587,0.844600,0.266167,-0.023788,-0.094041,0.000000,0.000000,1.000000,0.000000
1746110167903.000000,-0.518179,-0.377869,0.845360,0.256617,-0.019000,-0.089021,0.000000,0.000000,1.000000,0.000000
1746110168003.000000,-0.518337,-0.374072,0.846266,0.260248,-0.020512,-0.081116,0.000000,0.000000,1.000000,0.000000
1746110168103.000000,-0.517116,-0.369791,0.848376,0.266242,-0.021385,-0.087066,0.000000,0.000000,1.000000,0.000000
1746110168204.000000,-0.514667,-0.363792,0.850868,0.257772,-0.015466,-0.094033,0.000000,0.000000,1.000000,0.000000
1746110168304.000000,-0.511179,-0.357078,0.854615,0.256279,-0.016884,-0.087792,0.000000,0.000000,1.000000,0.000000
1746110168405.000000,-0.507361,-0.348281,0.858606,0.264403,-0.011392,-0.085048,0.000000,0.000000,1.000000,0.000000
1746110168505.000000,-0.501271,-0.339758,0.864047,0.260544,-0.019738,-0.088520,0.000000,0.000000,1.000000,0.000000
1746110168605.000000,-0.494568,-0.330933,0.868827,0.260707,-0.022795,-0.088013,0.000000,0.000000,1.000000,0.000000
1746110168706.000000,-0.487461,-0.322122,0.873358,0.265536,-0.020812,-0.094216,0.000000,0.000000,1.000000,0.000000
1746110168806.000000,-0.479177,-0.313198,0.877582,0.251171,-0.020375,-0.090541,0.000000,0.000000,1.000000,0.000000
1746110168906.000000,-0.470763,-0.303777,0.881238,0.267218,-0.019305,-0.090869,0.000000,0.000000,1.000000,0.000000
1746110169006.000000,-0.461470,-0.294157,0.885092,0.256737,-0.028473,-0.091251,0.000000,0.000000,1.000000,0.000000
1746110169107.000000,-0.452063,-0.283922,0.889275,0.266326,-0.028119,-0.086763,0.000000,0.000000,1.000000,0.000000
1746110169207.000000,-0.442403,-0.273017,0.894016,0.267958,-0.026602,-0.090991,0.000000,0.000000,1.000000,0.000000
1746110169307.000000,-0.432254,-0.262194,0.898987,0.275469,-0.027683,-0.090986,0.000000,0.000000,1.000000,0.000000
1746110169408.000000,-0.422210,-0.251363,0.903553,0.271846,-0.041827,-0.094299,0.000000,0.000000,1.000000,0.000000
1746110169508.000000,-0.411636,-0.241075,0.908073,0.272534,-0.028939,-0.089478,0.000000,0.000000,1.000000,0.000000
1746110169608.000000,-0.406079,-0.235567,0.910496,0.277075,-0.034398,-0.093132,3.000000,1.000000,1.000000,0.000000
1746110169708.000000,-0.390182,-0.220787,0.915461,0.269889,-0.036362,-0.088010,3.000000,1.000000,1.000000,0.000000
1746110169808.000000,-0.379766,-0.211760,0.919314,0.259730,-0.031943,-0.080326,3.000000,1.000000,1.000000,0.000000
1746110169909.000000,-0.370533,-0.203739,0.922482,0.271473,-0.051601,-0.090189,3.000000,1.000000,1.000000,0.000000
1746110170009.000000,-0.361222,-0.196147,0.926638,0.265505,-0.031850,-0.089370,3.000000,1.000000,1.000000,0.000000
1746110170109.000000,-0.352365,-0.189074,0.930363,0.256543,-0.034186,-0.088771,3.000000,1.000000,1.000000,0.000000
1746110170210.000000,-0.343619,-0.181273,0.933566,0.261462,-0.028654,-0.087685,3.000000,1.000000,1.000000,0.000000
1746110170310.000000,-0.338173,-0.176350,0.935723,0.269748,-0.030925,-0.091084,3.000000,1.000000,1.000000,0.000000
1746110170410.000000,-0.328277,-0.167468,0.937724,0.257609,-0.025616,-0.091538,3.000000,1.000000,1.000000,0.000000
1746110170511.000000,-0.317336,-0.158309,0.939620,0.257448,-0.027136,-0.088097,3.000000,1.000000,1.000000,0.000000
1746110170611.000000,-0.301969,-0.145892,0.941040,0.249798,-0.040908,-0.087878,3.000000,1.000000,1.000000,0.000000
1746110170711.000000,-0.293237,-0.138972,0.941738,0.254735,-0.034463,-0.089821,3.000000,1.000000,1.000000,0.000000
1746110170812.000000,-0.279545,-0.128001,0.942554,0.252816,-0.039805,-0.090871,3.000000,1.000000,1.000000,0.000000
1746110170912.000000,-0.266030,-0.117132,0.944089,0.258930,-0.028676,-0.085617,3.000000,1.000000,1.000000,0.000000
1746110171012.000000,-0.251210,-0.104581,0.944427,0.250459,-0.039730,-0.083370,3.000000,1.000000,1.000000,0.000000
1746110171112.000000,-0.237581,-0.092426,0.944119,0.258305,-0.036524,-0.085819,3.000000,1.000000,1.000000,0.000000
1746110171213.000000,-0.223173,-0.079006,0.944250,0.259981,-0.037502,-0.089265,3.000000,1.000000,1.000000,0.000000
1746110171313.000000,-0.209571,-0.066192,0.944522,0.253997,-0.046569,-0.085104,3.000000,1.000000,1.000000,0.000000
1746110171413.000000,-0.193761,-0.051827,0.946404,0.248050,-0.045675,-0.085045,3.000000,1.000000,1.000000,0.000000
1746110171514.000000,-0.180707,-0.039308,0.945830,0.255035,-0.042543,-0.087608,3.000000,1.000000,1.000000,0.000000
1746110171614.000000,-0.166673,-0.026115,0.947433,0.258706,-0.040838,-0.085500,3.000000,1.000000,1.000000,0.000000
1746110171715.000000,-0.153125,-0.013873,0.947878,0.256564,-0.047949,-0.088249,3.000000,1.000000,1.000000,0.000000
1746110171815.000000,-0.138569,-0.001458,0.948706,0.253926,-0.040096,-0.089401,3.000000,1.000000,1.000000,0.000000
1746110171915.000000,-0.124554,0.010224,0.949813,0.255954,-0.031866,-0.088518,3.000000,1.000000,1.000000,0.000000
1746110172016.000000,-0.109028,0.022765,0.951114,0.245261,-0.040788,-0.089562,3.000000,1.000000,1.000000,0.000000
1746110172116.000000,-0.094410,0.034659,0.951370,0.261912,-0.046202,-0.090801,3.000000,1.000000,1.000000,0.000000
1746110172216.000000,-0.080221,0.046203,0.952049,0.255701,-0.044578,-0.089571,3.000000,1.000000,1.000000,0.000000
1746110172317.000000,-0.066091,0.057988,0.952768,0.262866,-0.042044,-0.093715,3.000000,1.000000,1.000000,0.000000
1746110172417.000000,-0.051901,0.070040,0.953667,0.253934,-0.038574,-0.092197,3.000000,1.000000,1.000000,0.000000
1746110172517.000000,-0.037539,0.082286,0.955126,0.257228,-0.044477,-0.088368,3.000000,1.000000,1.000000,0.000000
1746110172618.000000,-0.022970,0.094731,0.956696,0.251715,-0.044960,-0.087962,3.000000,1.000000,1.000000,0.000000
1746110172718.000000,-0.009038,0.106839,0.957838,0.254125,-0.039191,-0.092470,3.000000,1.000000,1.000000,0.000000
1746110172818.000000,0.004312,0.118600,0.958217,0.255299,-0.045584,-0.091527,3.000000,1.000000,1.000000,0.000000
1746110172919.000000,0.017256,0.130491,0.958724,0.259619,-0.032419,-0.095877,3.000000,1.000000,1.000000,0.000000
1746110173019.000000,0.029678,0.142267,0.958664,0.255901,-0.032778,-0.093006,3.000000,1.000000,1.000000,0.000000
1746110173119.000000,0.042975,0.154628,0.959446,0.257778,-0.045389,-0.091131,3.000000,1.000000,1.000000,0.000000
1746110173219.000000,0.055313,0.166507,0.959741,0.260467,-0.042174,-0.094525,3.000000,1.000000,1.000000,0.000000
1746110173319.000000,0.067908,0.178846,0.959948,0.262902,-0.043902,-0.090237,3.000000,1.000000,1.000000,0.000000
1746110173420.000000,0.079733,0.190287,0.960460,0.254388,-0.040597,-0.085277,3.000000,1.000000,1.000000,0.000000
1746110173520.000000,0.091923,0.202374,0.960925,0.259886,-0.040161,-0.087939,3.000000,1.000000,1.000000,0.000000
1746110173620.000000,0.103674,0.214274,0.960961,0.258745,-0.036860,-0.092315,3.000000,1.000000,1.000000,0.000000
1746110173721.000000,0.115980,0.226652,0.960851,0.253632,-0.034735,-0.087770,3.000000,1.000000,1.000000,0.000000
1746110173821.000000,0.128272,0.238986,0.960341,0.251995,-0.040199,-0.088356,3.000000,1.000000,1.000000,0.000000
1746110173921.000000,0.141404,0.251864,0.959451,0.254766,-0.039210,-0.086762,3.000000,1.000000,1.000000,0.000000
1746110174021.000000,0.153766,0.263791,0.958055,0.262579,-0.039401,-0.091928,3.000000,1.000000,1.000000,0.000000
1746110174122.000000,0.166301,0.275937,0.957048,0.267628,-0.044082,-0.087747,3.000000,1.000000,1.000000,0.000000
1746110174222.000000,0.179210,0.288265,0.955323,0.250372,-0.035080,-0.087654,3.000000,1.000000,1.000000,0.000000
1746110174322.000000,0.191767,0.300359,0.954627,0.259578,-0.043323,-0.088186,3.000000,1.000000,1.000000,0.000000
1746110174423.000000,0.204080,0.312025,0.954037,0.254814,-0.041218,-0.086151,3.000000,1.000000,1.000000,0.000000
1746110174523.000000,0.216252,0.323578,0.953161,0.256556,-0.035797,-0.087819,3.000000,1.000000,1.000000,0.000000
1746110174623.000000,0.228361,0.335405,0.952349,0.258500,-0.029375,-0.091461,3.000000,1.000000,1.000000,0.000000
1746110174724.000000,0.240881,0.347696,0.951885,0.263529,-0.025458,-0.093586,3.000000,1.000000,1.000000,0.000000
1746110174824.000000,0.247546,0.354144,0.951512,0.251683,-0.026885,-0.087263,3.000000,1.000000,1.000000,0.000000
1746110174924.000000,0.267281,0.373041,0.950909,0.252061,-0.038809,-0.084426,3.000000,1.000000,1.000000,0.000000
1746110175024.000000,0.281547,0.386707,0.950566,0.260482,-0.037948,-0.088977,3.000000,1.000000,1.000000,0.000000
1746110175125.000000,0.288990,0.393952,0.950161,0.265639,-0.044254,-0.090041,3.000000,1.000000,1.000000,0.000000
1746110175225.000000,0.307779,0.412891,0.949665,0.262645,-0.047699,-0.089680,3.000000,1.000000,1.000000,0.000000
1746110175325.000000,0.315952,0.421482,0.949503,0.260913,-0.040917,-0.085543,3.000000,1.000000,1.000000,0.000000
1746110175426.000000,0.328856,0.435589,0.948931,0.252380,-0.035615,-0.086821,3.000000,1.000000,1.000000,0.000000
1746110175526.000000,0.340941,0.449035,0.949156,0.264055,-0.039871,-0.089433,3.000000,1.000000,1.000000,0.000000
1746110175626.000000,0.354192,0.463893,0.949777,0.260025,-0.044437,-0.088444,3.000000,1.000000,1.000000,0.000000
1746110175726.000000,0.365915,0.477507,0.950387,0.272701,-0.037421,-0.096278,3.000000,1.000000,1.000000,0.000000
1746110175827.000000,0.377464,0.491385,0.951691,0.258297,-0.036219,-0.091129,3.000000,1.000000,1.000000,0.000000
1746110175927.000000,0.388881,0.505464,0.953620,0.270069,-0.040245,-0.094540,3.000000,1.000000,1.000000,0.000000
1746110176027.000000,0.400103,0.519832,0.955695,0.269017,-0.037860,-0.095295,3.000000,1.000000,1.000000,0.000000
1746110176127.000000,0.411775,0.534713,0.958449,0.266558,-0.034843,-0.091901,3.000000,1.000000,1.000000,0.000000
1746110176228.000000,0.422452,0.548822,0.960832,0.272178,-0.038117,-0.095393,3.000000,1.000000,1.000000,0.000000
1746110176328.000000,0.432506,0.562800,0.962439,0.262594,-0.037083,-0.096962,3.000000,1.000000,1.000000,0.000000
1746110176428.000000,0.440803,0.574072,0.964625,0.265871,-0.042788,-0.094136,3.000000,1.000000,1.000000,0.000000
1746110176529.000000,0.452117,0.590185,0.965352,0.267431,-0.038930,-0.093337,3.000000,1.000000,1.000000,0.000000
1746110176629.000000,0.461751,0.603986,0.965899,0.265475,-0.036808,-0.094088,3.000000,1.000000,1.000000,0.000000
1746110176730.000000,0.471425,0.617654,0.966811,0.264931,-0.037814,-0.093073,3.000000,1.000000,1.000000,0.000000
1746110176830.000000,0.480289,0.630861,0.966013,0.264795,-0.028056,-0.093686,3.000000,1.000000,1.000000,0.000000
1746110176930.000000,0.490407,0.644512,0.966421,0.261243,-0.022882,-0.091064,3.000000,1.000000,1.000000,0.000000
1746110177030.000000,0.500874,0.657390,0.966645,0.261286,-0.020948,-0.090006,3.000000,1.000000,1.000000,0.000000
1746110177131.000000,0.511868,0.670300,0.967032,0.265879,-0.032204,-0.093068,3.000000,1.000000,1.000000,0.000000
1746110177231.000000,0.523094,0.682480,0.967206,0.267456,-0.028027,-0.092398,3.000000,1.000000,1.000000,0.000000
1746110177331.000000,0.533732,0.693886,0.967429,0.269613,-0.032456,-0.094222,3.000000,1.000000,1.000000,0.000000
1746110177432.000000,0.545323,0.705838,0.967181,0.264545,-0.032178,-0.093372,3.000000,1.000000,1.000000,0.000000
1746110177532.000000,0.556002,0.716896,0.966563,0.256983,-0.036104,-0.092701,3.000000,1.000000,1.000000,0.000000
1746110177632.000000,0.566888,0.727834,0.965628,0.264795,-0.032112,-0.092924,3.000000,1.000000,1.000000,0.000000
1746110177732.000000,0.576760,0.737954,0.964359,0.268823,-0.036949,-0.094598,3.000000,1.000000,1.000000,0.000000
1746110177833.000000,0.586268,0.747110,0.962902,0.264370,-0.033718,-0.092098,3.000000,1.000000,1.000000,0.000000
1746110177933.000000,0.595503,0.756813,0.960927,0.260629,-0.031113,-0.094383,3.000000,1.000000,1.000000,0.000000
1746110178033.000000,0.605123,0.766654,0.959498,0.256809,-0.029222,-0.096225,3.000000,1.000000,1.000000,0.000000
1746110178134.000000,0.614055,0.776517,0.958279,0.260798,-0.029271,-0.094353,3.000000,1.000000,1.000000,0.000000
1746110178234.000000,0.622926,0.786626,0.957190,0.258470,-0.030378,-0.094856,3.000000,1.000000,1.000000,0.000000
1746110178334.000000,0.631677,0.796635,0.956447,0.262930,-0.029008,-0.094480,3.000000,1.000000,1.000000,0.000000
1746110178435.000000,0.639736,0.805988,0.955527,0.264560,-0.032349,-0.095056,3.000000,1.000000,1.000000,0.000000
1746110178535.000000,0.649012,0.816726,0.953970,0.265880,-0.031279,-0.094701,3.000000,1.000000,1.000000,0.000000
1746110178635.000000,0.657706,0.826350,0.952391,0.260835,-0.032947,-0.095142,3.000000,1.000000,1.000000,0.000000
1746110178736.000000,0.665810,0.836033,0.950771,0.260353,-0.034911,-0.095756,3.000000,1.000000,1.000000,0.000000
1746110178836.000000,0.673928,0.845680,0.949018,0.263281,-0.029986,-0.093439,3.000000,1.000000,1.000000,0.000000
1746110178936.000000,0.682048,0.855397,0.947873,0.272049,-0.024739,-0.093990,3.000000,1.000000,1.000000,0.000000
1746110179037.000000,0.690122,0.864150,0.947142,0.277100,-0.025184,-0.091874,3.000000,1.000000,1.000000,0.000000
1746110179137.000000,0.698507,0.872352,0.947234,0.273868,-0.025158,-0.092969,3.000000,1.000000,1.000000,0.000000
1746110179237.000000,0.707097,0.879405,0.947361,0.274810,-0.025999,-0.088491,3.000000,1.000000,1.000000,0.000000
1746110179338.000000,0.716274,0.885483,0.947791,0.273182,-0.024388,-0.093438,3.000000,1.000000,1.000000,0.000000
1746110179438.000000,0.725528,0.890445,0.948593,0.268019,-0.024516,-0.091663,3.000000,1.000000,1.000000,0.000000
1746110179538.000000,0.735091,0.894672,0.949627,0.265562,-0.021871,-0.090500,3.000000,1.000000,1.000000,0.000000
1746110179639.000000,0.744678,0.898240,0.951031,0.262949,-0.035080,-0.092956,3.000000,1.000000,1.000000,0.000000
1746110179739.000000,0.749648,0.899865,0.952043,0.261841,-0.035125,-0.090735,3.000000,1.000000,1.000000,0.000000
1746110179840.000000,0.763916,0.904328,0.955232,0.260510,-0.028701,-0.089419,3.000000,1.000000,1.000000,0.000000
1746110179940.000000,0.774200,0.907011,0.958642,0.261953,-0.030235,-0.091746,3.000000,1.000000,1.000000,0.000000
1746110180040.000000,0.783952,0.909333,0.961941,0.261648,-0.025325,-0.092901,3.000000,1.000000,1.000000,0.000000
1746110180141.000000,0.789333,0.910812,0.963376,0.266208,-0.021514,-0.091603,3.000000,1.000000,1.000000,0.000000
1746110180241.000000,0.804588,0.914700,0.967304,0.255205,-0.018974,-0.090747,3.000000,1.000000,1.000000,0.000000
1746110180341.000000,0.815650,0.917775,0.969946,0.256103,-0.016816,-0.087631,3.000000,1.000000,1.000000,0.000000
1746110180442.000000,0.822890,0.920082,0.971419,0.260492,-0.021723,-0.090091,3.000000,1.000000,1.000000,0.000000
1746110180542.000000,0.834540,0.923677,0.973703,0.256312,-0.029119,-0.094015,3.000000,1.000000,1.000000,0.000000
1746110180642.000000,0.846072,0.927429,0.975740,0.252765,-0.026538,-0.094419,3.000000,1.000000,1.000000,0.000000
1746110180743.000000,0.858097,0.931249,0.977087,0.251983,-0.024126,-0.093643,3.000000,1.000000,1.000000,0.000000
1746110180843.000000,0.874375,0.936298,0.978081,0.256579,-0.022382,-0.091906,3.000000,1.000000,1.000000,0.000000
1746110180943.000000,0.883939,0.939521,0.977712,0.261523,-0.025846,-0.093964,3.000000,1.000000,1.000000,0.000000
1746110181044.000000,0.896706,0.943445,0.977181,0.257043,-0.019129,-0.093740,3.000000,1.000000,1.000000,0.000000
1746110181144.000000,0.910974,0.947213,0.976503,0.255882,-0.028772,-0.095534,3.000000,1.000000,1.000000,0.000000
1746110181244.000000,0.925088,0.950758,0.975045,0.261128,-0.027231,-0.092698,3.000000,1.000000,1.000000,0.000000
1746110181345.000000,0.939376,0.953844,0.973502,0.253768,-0.020516,-0.090865,3.000000,1.000000,1.000000,0.000000
1746110181445.000000,0.954088,0.957242,0.970995,0.251651,-0.026758,-0.092917,3.000000,1.000000,1.000000,0.000000
1746110181545.000000,0.969211,0.959952,0.969447,0.251301,-0.030362,-0.093533,3.000000,1.000000,1.000000,0.000000
1746110181646.000000,0.983707,0.962321,0.968409,0.256557,-0.024202,-0.090957,3.000000,1.000000,1.000000,0.000000
1746110181746.000000,0.998791,0.964652,0.967384,0.257007,-0.028651,-0.095008,3.000000,1.000000,1.000000,0.000000
1746110181846.000000,1.013998,0.966288,0.966599,0.257521,-0.026556,-0.094094,3.000000,1.000000,1.000000,0.000000
1746110181947.000000,1.028987,0.967343,0.966217,0.254974,-0.034424,-0.094749,3.000000,1.000000,1.000000,0.000000
1746110182047.000000,1.042700,0.968118,0.965051,0.259074,-0.030907,-0.093579,3.000000,1.000000,1.000000,0.000000
1746110182147.000000,1.058850,0.968357,0.964397,0.255082,-0.029467,-0.095355,3.000000,1.000000,1.000000,0.000000
1746110182247.000000,1.073120,0.968303,0.963275,0.254218,-0.028319,-0.097377,3.000000,1.000000,1.000000,0.000000
1746110182348.000000,1.088574,0.967605,0.962107,0.252642,-0.026408,-0.096417,3.000000,1.000000,1.000000,0.000000
1746110182448.000000,1.104174,0.966647,0.961971,0.240936,-0.025609,-0.089918,3.000000,1.000000,1.000000,0.000000
1746110182548.000000,1.118977,0.964501,0.961284,0.257615,-0.032544,-0.099395,3.000000,1.000000,1.000000,0.000000
1746110182649.000000,1.134518,0.962631,0.961937,0.237416,-0.032339,-0.095460,3.000000,1.000000,1.000000,0.000000
1746110182749.000000,1.148835,0.959301,0.961577,0.253776,-0.033400,-0.099152,3.000000,1.000000,1.000000,0.000000
1746110182849.000000,1.164439,0.957023,0.962349,0.252345,-0.027992,-0.098822,3.000000,1.000000,1.000000,0.000000
1746110182949.000000,1.178815,0.954145,0.962377,0.249176,-0.034053,-0.098122,3.000000,1.000000,1.000000,0.000000
1746110183050.000000,1.193010,0.951329,0.962175,0.253750,-0.036155,-0.099522,3.000000,1.000000,1.000000,0.000000
1746110183150.000000,1.207128,0.948779,0.962152,0.250291,-0.034352,-0.098997,3.000000,1.000000,1.000000,0.000000
1746110183250.000000,1.220650,0.946302,0.961907,0.261447,-0.036105,-0.096855,3.000000,1.000000,1.000000,0.000000
1746110183351.000000,1.235623,0.944109,0.962791,0.250085,-0.035526,-0.096688,3.000000,1.000000,1.000000,0.000000
1746110183451.000000,1.247785,0.942747,0.963680,0.248343,-0.031466,-0.097465,3.000000,1.000000,1.000000,0.000000
1746110183551.000000,1.263195,0.941090,0.964564,0.234264,-0.033098,-0.094112,3.000000,1.000000,1.000000,0.000000
1746110183652.000000,1.277155,0.940279,0.966426,0.252782,-0.032865,-0.098343,3.000000,1.000000,1.000000,0.000000
1746110183752.000000,1.290465,0.939664,0.967737,0.257675,-0.040935,-0.098033,3.000000,1.000000,1.000000,0.000000
1746110183853.000000,1.304307,0.939595,0.970228,0.256556,-0.032531,-0.101748,3.000000,1.000000,1.000000,0.000000
1746110183953.000000,1.318443,0.939461,0.972790,0.237435,-0.045264,-0.097388,3.000000,1.000000,1.000000,0.000000
1746110184053.000000,1.332813,0.939988,0.975665,0.256347,-0.035798,-0.101075,3.000000,1.000000,1.000000,0.000000
1746110184153.000000,1.346970,0.940066,0.977991,0.252667,-0.031721,-0.100710,3.000000,1.000000,1.000000,0.000000
1746110184254.000000,1.361279,0.940132,0.980250,0.253712,-0.034795,-0.098029,3.000000,1.000000,1.000000,0.000000
1746110184354.000000,1.375308,0.939842,0.982220,0.258138,-0.029025,-0.105280,3.000000,1.000000,1.000000,0.000000
1746110184454.000000,1.389240,0.939661,0.984490,0.247689,-0.032566,-0.101577,3.000000,1.000000,1.000000,0.000000
1746110184554.000000,1.403397,0.939298,0.986854,0.253887,-0.035010,-0.101326,3.000000,1.000000,1.000000,0.000000
1746110184654.000000,1.417254,0.938951,0.988778,0.248770,-0.035100,-0.100307,3.000000,1.000000,1.000000,0.000000
1746110184755.000000,1.430899,0.938807,0.990578,0.248623,-0.035645,-0.102969,3.000000,1.000000,1.000000,0.000000
1746110184855.000000,1.444521,0.938622,0.992057,0.249847,-0.030389,-0.103393,3.000000,1.000000,1.000000,0.000000
1746110184955.000000,1.458159,0.938481,0.992950,0.252056,-0.035280,-0.100205,3.000000,1.000000,1.000000,0.000000
1746110185055.000000,1.472044,0.938545,0.993905,0.250549,-0.034719,-0.103934,3.000000,1.000000,1.000000,0.000000
1746110185155.000000,1.485433,0.938560,0.993959,0.253818,-0.022373,-0.104448,3.000000,1.000000,1.000000,0.000000
1746110185256.000000,1.500852,0.938449,0.994112,0.249158,-0.031298,-0.104230,3.000000,1.000000,1.000000,0.000000
1746110185356.000000,1.509846,0.938402,0.993783,0.250666,-0.038288,-0.102737,3.000000,1.000000,1.000000,0.000000
1746110185456.000000,1.524735,0.938476,0.993034,0.232999,-0.026111,-0.101736,3.000000,1.000000,1.000000,0.000000
1746110185556.000000,1.539634,0.938626,0.992985,0.246872,-0.030709,-0.102935,3.000000,1.000000,1.000000,0.000000
1746110185657.000000,1.554635,0.938845,0.993168,0.249758,-0.034309,-0.106970,3.000000,1.000000,1.000000,0.000000
1746110185757.000000,1.570241,0.939350,0.993511,0.251151,-0.033672,-0.106225,3.000000,1.000000,1.000000,0.000000
1746110185858.000000,1.585975,0.940266,0.994420,0.251282,-0.036573,-0.106263,3.000000,1.000000,1.000000,0.000000
1746110185958.000000,1.601980,0.941317,0.995593,0.247536,-0.037765,-0.106319,3.000000,1.000000,1.000000,0.000000
1746110186058.000000,1.617402,0.942455,0.997571,0.252794,-0.035284,-0.105849,3.000000,1.000000,1.000000,0.000000
1746110186159.000000,1.633168,0.943471,0.999501,0.240211,-0.027885,-0.100870,3.000000,1.000000,1.000000,0.000000
1746110186259.000000,1.648831,0.944670,1.001520,0.256684,-0.037006,-0.108128,3.000000,1.000000,1.000000,0.000000
1746110186359.000000,1.664088,0.945972,1.002827,0.243803,-0.039644,-0.103600,3.000000,1.000000,1.000000,0.000000
1746110186460.000000,1.679723,0.947107,1.004384,0.252173,-0.038195,-0.111934,3.000000,1.000000,1.000000,0.000000
1746110186560.000000,1.694235,0.948156,1.005108,0.255197,-0.032135,-0.113584,3.000000,1.000000,1.000000,0.000000
1746110186660.000000,1.709284,0.949134,1.006089,0.256417,-0.037226,-0.111550,3.000000,1.000000,1.000000,0.000000
1746110186761.000000,1.723369,0.950267,1.006387,0.261050,-0.029804,-0.114108,3.000000,1.000000,1.000000,0.000000
1746110186861.000000,1.738031,0.951420,1.007050,0.262480,-0.033722,-0.113890,3.000000,1.000000,1.000000,0.000000
1746110186961.000000,1.752115,0.952497,1.007077,0.262887,-0.031126,-0.114790,3.000000,1.000000,1.000000,0.000000
1746110187061.000000,1.765770,0.953355,1.007515,0.260871,-0.033158,-0.115285,3.000000,1.000000,1.000000,0.000000
1746110187162.000000,1.779527,0.953886,1.007766,0.262133,-0.032396,-0.113255,3.000000,1.000000,1.000000,0.000000
1746110187262.000000,1.793358,0.954489,1.008301,0.263789,-0.028612,-0.116154,3.000000,1.000000,1.000000,0.000000
1746110187362.000000,1.807575,0.955021,1.009099,0.259421,-0.033443,-0.113674,3.000000,1.000000,1.000000,0.000000
1746110187462.000000,1.822051,0.955489,1.009602,0.256950,-0.034050,-0.113827,3.000000,1.000000,1.000000,0.000000
1746110187563.000000,1.836071,0.956058,1.009687,0.263185,-0.026449,-0.115367,3.000000,1.000000,1.000000,0.000000
1746110187663.000000,1.849900,0.956401,1.010088,0.263104,-0.027862,-0.114175,3.000000,1.000000,1.000000,0.000000
1746110187763.000000,1.864425,0.956441,1.009509,0.262821,-0.039124,-0.112943,3.000000,1.000000,1.000000,0.000000
1746110187863.000000,1.879057,0.956301,1.009192,0.262708,-0.033313,-0.112516,3.000000,1.000000,1.000000,0.000000
1746110187963.000000,1.892921,0.955858,1.008301,0.260823,-0.036007,-0.114021,3.000000,1.000000,1.000000,0.000000
1746110188063.000000,1.906981,0.955260,1.007503,0.265019,-0.036151,-0.115132,3.000000,1.000000,1.000000,0.000000
1746110188164.000000,1.919806,0.954091,1.007009,0.264250,-0.036585,-0.116246,3.000000,1.000000,1.000000,0.000000
1746110188264.000000,1.933539,0.952817,1.006671,0.260230,-0.035280,-0.114769,3.000000,1.000000,1.000000,0.000000
1746110188364.000000,1.947708,0.951420,1.006020,0.262692,-0.029243,-0.116128,3.000000,1.000000,1.000000,0.000000
1746110188465.000000,1.961341,0.949905,1.005906,0.263236,-0.033126,-0.115457,3.000000,1.000000,1.000000,0.000000
1746110188565.000000,1.975134,0.948024,1.005645,0.262460,-0.035693,-0.115625,3.000000,1.000000,1.000000,0.000000
1746110188665.000000,1.987763,0.946338,1.005850,0.266347,-0.032463,-0.115857,3.000000,1.000000,1.000000,0.000000
1746110188766.000000,2.002896,0.944580,1.004842,0.243595,-0.036133,-0.111218,3.000000,1.000000,1.000000,0.000000
1746110188866.000000,2.017296,0.943252,1.005002,0.259960,-0.032290,-0.116707,3.000000,1.000000,1.000000,0.000000
1746110188966.000000,2.031481,0.941842,1.004483,0.260227,-0.016213,-0.114232,3.000000,1.000000,1.000000,0.000000
1746110189067.000000,2.045429,0.941099,1.004155,0.257234,-0.031902,-0.119536,3.000000,1.000000,1.000000,0.000000
1746110189167.000000,2.060014,0.939994,1.004510,0.259523,-0.032019,-0.116176,3.000000,1.000000,1.000000,0.000000
1746110189267.000000,2.073994,0.939151,1.005378,0.262362,-0.031773,-0.116868,3.000000,1.000000,1.000000,0.000000
1746110189367.000000,2.087724,0.938473,1.006372,0.263681,-0.025312,-0.120514,3.000000,1.000000,1.000000,0.000000
1746110189468.000000,2.101604,0.937294,1.008320,0.263615,-0.033272,-0.118585,3.000000,1.000000,1.000000,0.000000
1746110189568.000000,2.115322,0.936221,1.009664,0.266355,-0.029285,-0.118938,3.000000,1.000000,1.000000,0.000000
1746110189668.000000,2.129799,0.935012,1.011566,0.265221,-0.029786,-0.118099,3.000000,1.000000,1.000000,0.000000
1746110189769.000000,2.143757,0.933713,1.012937,0.264006,-0.029542,-0.117953,3.000000,1.000000,1.000000,0.000000
1746110189869.000000,2.157036,0.932488,1.013969,0.265904,-0.031523,-0.117358,3.000000,1.000000,1.000000,0.000000
1746110189969.000000,2.171713,0.930916,1.014798,0.262406,-0.029523,-0.119200,3.000000,1.000000,1.000000,0.000000
1746110190069.000000,2.185927,0.929564,1.015075,0.264017,-0.028795,-0.119168,3.000000,1.000000,1.000000,0.000000
1746110190169.000000,2.196528,0.928451,1.014673,0.265502,-0.027589,-0.120843,3.000000,1.000000,1.000000,0.000000
1746110190270.000000,2.214446,0.926900,1.014267,0.261849,-0.031592,-0.121078,3.000000,1.000000,1.000000,0.000000
1746110190370.000000,2.228674,0.925458,1.013023,0.245399,-0.029008,-0.118829,3.000000,1.000000,1.000000,0.000000
1746110190470.000000,2.242860,0.924213,1.012358,0.270021,-0.031173,-0.119338,3.000000,1.000000,1.000000,0.000000
1746110190570.000000,2.257002,0.922483,1.011184,0.270879,-0.026462,-0.121360,3.000000,1.000000,1.000000,0.000000
1746110190671.000000,2.268724,0.920995,1.010502,0.269391,-0.032122,-0.120612,3.000000,1.000000,1.000000,0.000000
1746110190771.000000,2.284848,0.918541,1.009754,0.263397,-0.032887,-0.119715,3.000000,1.000000,1.000000,0.000000
1746110190871.000000,2.295330,0.916645,1.009457,0.263549,-0.031882,-0.120681,3.000000,1.000000,1.000000,0.000000
1746110190972.000000,2.310211,0.913705,1.009145,0.259300,-0.027391,-0.120539,3.000000,1.000000,1.000000,0.000000
1746110191072.000000,2.324632,0.911003,1.008951,0.259691,-0.031423,-0.121311,3.000000,1.000000,1.000000,0.000000
1746110191172.000000,2.338484,0.908788,1.008823,0.265454,-0.029313,-0.123074,3.000000,1.000000,1.000000,0.000000
1746110191273.000000,2.353323,0.906650,1.008786,0.266538,-0.029936,-0.124117,3.000000,1.000000,1.000000,0.000000
1746110191373.000000,2.367455,0.904454,1.008793,0.260077,-0.024115,-0.120993,3.000000,1.000000,1.000000,0.000000
1746110191473.000000,2.382509,0.901994,1.008997,0.261710,-0.028499,-0.124194,3.000000,1.000000,1.000000,0.000000
1746110191574.000000,2.396931,0.899386,1.009327,0.258586,-0.033926,-0.124855,3.000000,1.000000,1.000000,0.000000
1746110191674.000000,2.411801,0.896737,1.009303,0.258085,-0.035217,-0.125909,3.000000,1.000000,1.000000,0.000000
1746110191775.000000,2.426150,0.894184,1.009417,0.261230,-0.027219,-0.126438,3.000000,1.000000,1.000000,0.000000
1746110191875.000000,2.440215,0.891237,1.008856,0.259412,-0.026450,-0.124438,3.000000,1.000000,1.000000,0.000000
1746110191975.000000,2.455654,0.887876,1.008113,0.256865,-0.027397,-0.126429,3.000000,1.000000,1.000000,0.000000
1746110192075.000000,2.469871,0.884407,1.007619,0.254158,-0.036195,-0.130507,3.000000,1.000000,1.000000,0.000000
1746110192175.000000,2.483630,0.880929,1.007659,0.260996,-0.027856,-0.130159,3.000000,1.000000,1.000000,0.000000
1746110192276.000000,2.498509,0.877359,1.007765,0.256262,-0.027979,-0.125560,3.000000,1.000000,1.000000,0.000000
1746110192376.000000,2.512368,0.874760,1.007639,0.253952,-0.027722,-0.124417,3.000000,1.000000,1.000000,0.000000
1746110192476.000000,2.526657,0.872150,1.007513,0.259877,-0.024986,-0.121515,3.000000,1.000000,1.000000,0.000000
1746110192576.000000,2.541165,0.870264,1.007317,0.262512,-0.029653,-0.125604,-1.000000,0.000000,1.000000,0.000000
1746110192677.000000,2.555463,0.867954,1.007080,0.271584,-0.033697,-0.128162,-1.000000,0.000000,1.000000,0.000000
1746110192777.000000,2.568458,0.865037,1.006444,0.280554,-0.037372,-0.126507,-1.000000,0.000000,1.000000,0.000000
1746110192877.000000,2.579213,0.860429,1.006251,0.286941,-0.056903,-0.126675,-1.000000,0.000000,1.000000,0.000000
1746110192978.000000,2.586492,0.854925,1.005929,0.288656,-0.069008,-0.126139,-1.000000,0.000000,1.000000,0.000000
1746110193078.000000,2.591879,0.845178,1.004792,0.294878,-0.076455,-0.128255,-1.000000,0.000000,1.000000,0.000000
1746110193178.000000,2.592407,0.833827,1.003717,0.300441,-0.074522,-0.129795,-1.000000,0.000000,1.000000,0.000000
1746110193278.000000,2.589115,0.819676,1.002589,0.305304,-0.074559,-0.129177,-1.000000,0.000000,1.000000,0.000000
1746110193379.000000,2.582050,0.803098,1.001156,0.300979,-0.074277,-0.129469,-1.000000,0.000000,1.000000,0.000000
1746110193479.000000,2.571718,0.784174,0.999663,0.301819,-0.072693,-0.132924,-1.000000,0.000000,1.000000,0.000000
1746110193579.000000,2.557889,0.762175,0.998438,0.297398,-0.068420,-0.131054,-1.000000,0.000000,1.000000,0.000000
1746110193679.000000,2.543050,0.739973,0.996873,0.295438,-0.066191,-0.132939,-1.000000,0.000000,1.000000,0.000000
1746110193780.000000,2.524649,0.714018,0.995103,0.296928,-0.064281,-0.132317,-1.000000,0.000000,1.000000,0.000000
1746110193880.000000,2.506145,0.688479,0.993267,0.295141,-0.061884,-0.131292,-1.000000,0.000000,1.000000,0.000000
1746110193980.000000,2.484197,0.659249,0.991164,0.294440,-0.059935,-0.133383,-1.000000,0.000000,1.000000,0.000000
1746110194081.000000,2.462202,0.629921,0.989621,0.293283,-0.059583,-0.131103,-1.000000,0.000000,1.000000,0.000000
1746110194181.000000,2.439425,0.599500,0.988394,0.288401,-0.059813,-0.133966,-1.000000,0.000000,1.000000,0.000000
1746110194281.000000,2.416401,0.567978,0.987096,0.292321,-0.054505,-0.131632,-1.000000,0.000000,1.000000,0.000000
1746110194381.000000,2.393371,0.535550,0.986102,0.287437,-0.058804,-0.133634,-1.000000,0.000000,1.000000,0.000000
1746110194482.000000,2.370399,0.501957,0.984864,0.285808,-0.059735,-0.133915,-1.000000,0.000000,1.000000,0.000000
1746110194582.000000,2.347780,0.466929,0.983437,0.278853,-0.058107,-0.133033,-1.000000,0.000000,1.000000,0.000000
1746110194683.000000,2.325553,0.430832,0.982048,0.281819,-0.060533,-0.135337,-1.000000,0.000000,1.000000,0.000000
1746110194783.000000,2.303221,0.393682,0.980654,0.276476,-0.068533,-0.134903,-1.000000,0.000000,1.000000,0.000000
1746110194883.000000,2.280132,0.354766,0.979086,0.271818,-0.067614,-0.138256,-1.000000,0.000000,1.000000,0.000000
1746110194983.000000,2.259552,0.319877,0.977435,0.273140,-0.071075,-0.141131,-1.000000,0.000000,1.000000,0.000000
1746110195084.000000,2.236241,0.280118,0.976249,0.269225,-0.074290,-0.147630,-1.000000,0.000000,1.000000,0.000000
1746110195184.000000,2.223545,0.258728,0.975731,0.260797,-0.075326,-0.148796,-1.000000,0.000000,1.000000,0.000000
1746110195284.000000,2.197522,0.215489,0.974998,0.264453,-0.080559,-0.162002,-1.000000,0.000000,1.000000,0.000000
1746110195385.000000,2.174278,0.178285,0.974498,0.269855,-0.080315,-0.172887,-1.000000,0.000000,1.000000,0.000000
1746110195485.000000,2.146198,0.134865,0.972877,0.275421,-0.082539,-0.183895,-1.000000,0.000000,1.000000,0.000000
1746110195585.000000,2.129619,0.110261,0.971304,0.280195,-0.085675,-0.187380,-1.000000,0.000000,1.000000,0.000000
1746110195686.000000,2.107915,0.078980,0.969109,0.277063,-0.091328,-0.196901,-1.000000,0.000000,1.000000,0.000000
1746110195786.000000,2.085120,0.047285,0.966713,0.278767,-0.097740,-0.204094,-1.000000,0.000000,1.000000,0.000000
1746110195886.000000,2.062107,0.016857,0.963334,0.284256,-0.089896,-0.212867,-1.000000,0.000000,1.000000,0.000000
1746110195987.000000,2.039678,-0.011157,0.959768,0.275370,-0.092564,-0.213247,-1.000000,0.000000,1.000000,0.000000
1746110196087.000000,2.016148,-0.039216,0.955776,0.282047,-0.092662,-0.217388,-1.000000,0.000000,1.000000,0.000000
1746110196187.000000,1.993453,-0.065292,0.952046,0.286489,-0.093983,-0.216988,-1.000000,0.000000,1.000000,0.000000
1746110196288.000000,1.969545,-0.092095,0.947800,0.290465,-0.094933,-0.213323,-1.000000,0.000000,1.000000,0.000000
1746110196388.000000,1.946037,-0.118642,0.943769,0.285707,-0.093121,-0.211061,-1.000000,0.000000,1.000000,0.000000
1746110196488.000000,1.923460,-0.144622,0.939958,0.281811,-0.091714,-0.207010,-1.000000,0.000000,1.000000,0.000000
1746110196589.000000,1.900491,-0.171488,0.936651,0.268032,-0.094932,-0.205003,-1.000000,0.000000,1.000000,0.000000
1746110196689.000000,1.878921,-0.196886,0.933640,0.265966,-0.093021,-0.202218,-1.000000,0.000000,1.000000,0.000000
1746110196790.000000,1.856869,-0.222465,0.929903,0.266713,-0.090446,-0.205792,-1.000000,0.000000,1.000000,0.000000
1746110196890.000000,1.836228,-0.246325,0.926913,0.268835,-0.090066,-0.207783,-1.000000,0.000000,1.000000,0.000000
1746110196990.000000,1.815766,-0.268628,0.924524,0.263849,-0.091079,-0.212381,-1.000000,0.000000,1.000000,0.000000
1746110197090.000000,1.795218,-0.289941,0.922366,0.257715,-0.095069,-0.207584,-1.000000,0.000000,1.000000,0.000000
1746110197190.000000,1.774948,-0.310202,0.920630,0.262135,-0.094205,-0.209715,-1.000000,0.000000,1.000000,0.000000
1746110197291.000000,1.754426,-0.329431,0.918820,0.261179,-0.091769,-0.210557,-1.000000,0.000000,1.000000,0.000000
1746110197391.000000,1.734923,-0.347082,0.917149,0.258065,-0.093186,-0.206668,-1.000000,0.000000,1.000000,0.000000
1746110197491.000000,1.713810,-0.365365,0.914629,0.260783,-0.091118,-0.205833,-1.000000,0.000000,1.000000,0.000000
1746110197591.000000,1.692771,-0.382769,0.912036,0.261992,-0.088631,-0.208238,-1.000000,0.000000,1.000000,0.000000
1746110197692.000000,1.672722,-0.398891,0.909208,0.265588,-0.090769,-0.209336,-1.000000,0.000000,1.000000,0.000000
1746110197792.000000,1.652566,-0.414708,0.906086,0.264310,-0.088877,-0.211324,-1.000000,0.000000,1.000000,0.000000
1746110197892.000000,1.633440,-0.428779,0.902747,0.261462,-0.087902,-0.213985,-1.000000,0.000000,1.000000,0.000000
1746110197992.000000,1.612928,-0.443335,0.899293,0.260517,-0.088029,-0.216830,-1.000000,0.000000,1.000000,0.000000
1746110198093.000000,1.593398,-0.456398,0.896439,0.264357,-0.089181,-0.225780,-1.000000,0.000000,1.000000,0.000000
1746110198193.000000,1.574420,-0.468247,0.893929,0.260153,-0.095581,-0.232301,-1.000000,0.000000,1.000000,0.000000
1746110198293.000000,1.556122,-0.479234,0.891350,0.259245,-0.094830,-0.245640,-1.000000,0.000000,1.000000,0.000000
1746110198393.000000,1.538429,-0.488975,0.889039,0.258375,-0.098428,-0.256513,-1.000000,0.000000,1.000000,0.000000
1746110198494.000000,1.521008,-0.497640,0.886986,0.261843,-0.102442,-0.270269,-1.000000,0.000000,1.000000,0.000000
1746110198594.000000,1.503700,-0.505146,0.884881,0.264166,-0.105605,-0.279289,-1.000000,0.000000,1.000000,0.000000
1746110198694.000000,1.486349,-0.511894,0.882545,0.266873,-0.105736,-0.288975,-1.000000,0.000000,1.000000,0.000000
1746110198794.000000,1.468502,-0.518272,0.880220,0.266776,-0.107142,-0.298852,-1.000000,0.000000,1.000000,0.000000
1746110198895.000000,1.450656,-0.524212,0.878328,0.266865,-0.110232,-0.306140,-1.000000,0.000000,1.000000,0.000000
1746110198995.000000,1.431843,-0.529990,0.876148,0.268753,-0.108823,-0.312958,-1.000000,0.000000,1.000000,0.000000
1746110199095.000000,1.413588,-0.535465,0.874305,0.267453,-0.110650,-0.317630,-1.000000,0.000000,1.000000,0.000000
1746110199195.000000,1.395942,-0.540211,0.872706,0.262804,-0.115843,-0.323251,-1.000000,0.000000,1.000000,0.000000
1746110199295.000000,1.377544,-0.545060,0.871184,0.262679,-0.118803,-0.325435,-1.000000,0.000000,1.000000,0.000000
1746110199395.000000,1.358396,-0.550671,0.869791,0.269911,-0.112699,-0.323572,-1.000000,0.000000,1.000000,0.000000
1746110199496.000000,1.340254,-0.556848,0.868834,0.265423,-0.112925,-0.315783,-1.000000,0.000000,1.000000,0.000000
1746110199596.000000,1.322226,-0.563935,0.867627,0.260569,-0.112991,-0.305721,-1.000000,0.000000,1.000000,0.000000
1746110199696.000000,1.304205,-0.572117,0.866506,0.252976,-0.114490,-0.295272,-1.000000,0.000000,1.000000,0.000000
1746110199796.000000,1.287116,-0.580824,0.865658,0.252639,-0.115125,-0.284124,-1.000000,0.000000,1.000000,0.000000
1746110199896.000000,1.268534,-0.591216,0.864529,0.246923,-0.112800,-0.277129,-1.000000,0.000000,1.000000,0.000000
1746110199997.000000,1.256418,-0.598655,0.863978,0.247047,-0.112164,-0.273309,-1.000000,0.000000,1.000000,0.000000
1746110200097.000000,1.238838,-0.610189,0.863284,0.240952,-0.106869,-0.268728,-1.000000,0.000000,1.000000,0.000000
1746110200197.000000,1.221011,-0.622086,0.862409,0.230991,-0.106202,-0.279867,-1.000000,0.000000,1.000000,0.000000
1746110200297.000000,1.204209,-0.632591,0.862094,0.221277,-0.112593,-0.291700,-1.000000,0.000000,1.000000,0.000000
1746110200398.000000,1.187323,-0.641489,0.862383,0.222772,-0.114208,-0.308411,-1.000000,0.000000,1.000000,0.000000
1746110200498.000000,1.170737,-0.647419,0.862726,0.236665,-0.120969,-0.319425,-1.000000,0.000000,1.000000,0.000000
1746110200598.000000,1.155479,-0.650920,0.863481,0.242284,-0.126101,-0.334220,-1.000000,0.000000,1.000000,0.000000
1746110200699.000000,1.140184,-0.652935,0.864766,0.245760,-0.127200,-0.342055,-1.000000,0.000000,1.000000,0.000000
1746110200799.000000,1.125360,-0.654578,0.866597,0.247297,-0.132146,-0.349423,-1.000000,0.000000,1.000000,0.000000
1746110200900.000000,1.111500,-0.655987,0.868521,0.244595,-0.135180,-0.358491,-1.000000,0.000000,1.000000,0.000000
1746110201000.000000,1.097732,-0.657544,0.870430,0.243668,-0.137243,-0.368893,-1.000000,0.000000,1.000000,0.000000
1746110201100.000000,1.083821,-0.659213,0.872173,0.241543,-0.146869,-0.379370,-1.000000,0.000000,1.000000,0.000000
1746110201200.000000,1.070300,-0.661394,0.874295,0.245548,-0.149914,-0.388686,-1.000000,0.000000,1.000000,0.000000
1746110201301.000000,1.056509,-0.663594,0.875944,0.239665,-0.150570,-0.400982,-1.000000,0.000000,1.000000,0.000000
1746110201401.000000,1.041700,-0.666123,0.877878,0.237131,-0.157056,-0.421479,-1.000000,0.000000,1.000000,0.000000
1746110201501.000000,1.027150,-0.668330,0.880454,0.229609,-0.160773,-0.436911,-1.000000,0.000000,1.000000,0.000000
1746110201601.000000,1.013764,-0.670149,0.882435,0.230299,-0.167982,-0.456545,-1.000000,0.000000,1.000000,0.000000
1746110201702.000000,0.999154,-0.671440,0.884496,0.228642,-0.170690,-0.479598,-1.000000,0.000000,1.000000,0.000000
1746110201802.000000,0.984880,-0.672142,0.886218,0.229803,-0.175630,-0.498941,-1.000000,0.000000,1.000000,0.000000
1746110201902.000000,0.970558,-0.671947,0.887791,0.232234,-0.178004,-0.521878,-1.000000,0.000000,1.000000,0.000000
1746110202002.000000,0.956011,-0.671308,0.889337,0.228642,-0.181045,-0.541392,-1.000000,0.000000,1.000000,0.000000
1746110202102.000000,0.941121,-0.670468,0.891243,0.229860,-0.188036,-0.561201,-1.000000,0.000000,1.000000,0.000000
1746110202203.000000,0.929666,-0.669552,0.892706,0.231814,-0.192317,-0.575974,-1.000000,0.000000,1.000000,0.000000
1746110202303.000000,0.909882,-0.667834,0.895288,0.226328,-0.198851,-0.603320,-1.000000,0.000000,1.000000,0.000000
1746110202403.000000,0.894036,-0.666457,0.897653,0.221307,-0.204393,-0.625894,-1.000000,0.000000,1.000000,0.000000
1746110202504.000000,0.877447,-0.665404,0.899942,0.221236,-0.210450,-0.650905,-1.000000,0.000000,1.000000,0.000000
1746110202604.000000,0.860215,-0.664692,0.902448,0.221461,-0.217549,-0.667911,-1.000000,0.000000,1.000000,0.000000
1746110202704.000000,0.842388,-0.664594,0.905270,0.219254,-0.216732,-0.692201,-1.000000,0.000000,1.000000,0.000000
1746110202805.000000,0.823392,-0.665593,0.908118,0.217501,-0.217037,-0.710319,-1.000000,0.000000,1.000000,0.000000
1746110202905.000000,0.803980,-0.666765,0.910862,0.212016,-0.226441,-0.729219,-1.000000,0.000000,1.000000,0.000000
1746110203005.000000,0.783211,-0.669003,0.913637,0.210009,-0.231437,-0.750418,-1.000000,0.000000,1.000000,0.000000
1746110203106.000000,0.761238,-0.671242,0.916375,0.204588,-0.231149,-0.764806,-1.000000,0.000000,1.000000,0.000000
1746110203206.000000,0.736582,-0.673869,0.918393,0.203035,-0.230872,-0.789164,-1.000000,0.000000,1.000000,0.000000
1746110203306.000000,0.711179,-0.675763,0.920160,0.196823,-0.230612,-0.810418,-1.000000,0.000000,1.000000,0.000000
1746110203407.000000,0.685941,-0.676748,0.922924,0.204221,-0.230426,-0.837152,-1.000000,0.000000,1.000000,0.000000
1746110203507.000000,0.657184,-0.676456,0.926264,0.205495,-0.239163,-0.859330,-1.000000,0.000000,1.000000,0.000000
1746110203607.000000,0.630448,-0.675568,0.928160,0.208732,-0.243683,-0.881017,-1.000000,0.000000,1.000000,0.000000
1746110203708.000000,0.599373,-0.674702,0.930025,0.211906,-0.252013,-0.901640,-1.000000,0.000000,1.000000,0.000000
1746110203808.000000,0.567174,-0.673820,0.932269,0.201948,-0.246937,-0.920735,-1.000000,0.000000,1.000000,0.000000
1746110203908.000000,0.532952,-0.673315,0.934751,0.195023,-0.234269,-0.937287,-1.000000,0.000000,1.000000,0.000000
1746110204008.000000,0.498006,-0.671652,0.937287,0.188099,-0.226024,-0.955358,-1.000000,0.000000,1.000000,0.000000
1746110204109.000000,0.462853,-0.669392,0.939219,0.195219,-0.228827,-0.969639,-1.000000,0.000000,1.000000,0.000000
1746110204209.000000,0.428561,-0.666428,0.941480,0.195083,-0.234046,-0.977235,-1.000000,0.000000,1.000000,0.000000
1746110204309.000000,0.395630,-0.663804,0.944292,0.192580,-0.237482,-0.982891,-1.000000,0.000000,1.000000,0.000000
1746110204409.000000,0.363745,-0.661702,0.946536,0.189082,-0.248214,-0.989241,-1.000000,0.000000,1.000000,0.000000
1746110204510.000000,0.332701,-0.660769,0.947904,0.187800,-0.258425,-0.998926,-1.000000,0.000000,1.000000,0.000000
1746110204610.000000,0.302177,-0.660047,0.949135,0.178452,-0.258183,-1.005101,-1.000000,0.000000,1.000000,0.000000
1746110204710.000000,0.281652,-0.659978,0.950222,0.173981,-0.260986,-1.008594,-1.000000,0.000000,1.000000,0.000000
1746110204811.000000,0.241434,-0.661204,0.952837,0.173967,-0.269718,-1.025498,-1.000000,0.000000,1.000000,0.000000
1746110204911.000000,0.218747,-0.662364,0.954079,0.170299,-0.271543,-1.039501,-1.000000,0.000000,1.000000,0.000000
1746110205011.000000,0.186820,-0.663265,0.955043,0.150101,-0.255987,-1.047777,-1.000000,0.000000,1.000000,0.000000
1746110205112.000000,0.154241,-0.664666,0.956004,0.145251,-0.255739,-1.061067,-1.000000,0.000000,1.000000,0.000000
1746110205212.000000,0.121755,-0.665413,0.957285,0.144682,-0.256498,-1.083739,-1.000000,0.000000,1.000000,0.000000
1746110205312.000000,0.090634,-0.666046,0.958454,0.145381,-0.266231,-1.103832,-1.000000,0.000000,1.000000,0.000000
1746110205413.000000,0.064770,-0.666609,0.959705,0.138554,-0.275222,-1.114488,-1.000000,0.000000,1.000000,0.000000
1746110205513.000000,0.031312,-0.667075,0.961953,0.131030,-0.274979,-1.132417,-1.000000,0.000000,1.000000,0.000000
1746110205613.000000,0.001107,-0.667239,0.964038,0.125564,-0.272407,-1.140713,-1.000000,0.000000,1.000000,0.000000
1746110205714.000000,-0.027003,-0.666376,0.966313,0.123281,-0.278284,-1.151528,-1.000000,0.000000,1.000000,0.000000
1746110205814.000000,-0.056667,-0.664812,0.968156,0.124347,-0.282146,-1.169241,-1.000000,0.000000,1.000000,0.000000
1746110205914.000000,-0.086789,-0.662006,0.969785,0.118476,-0.282431,-1.184900,-1.000000,0.000000,1.000000,0.000000
1746110206015.000000,-0.116220,-0.658956,0.971400,0.120642,-0.282731,-1.192988,-1.000000,0.000000,1.000000,0.000000
1746110206115.000000,-0.147537,-0.654666,0.972972,0.121395,-0.280373,-1.205983,-1.000000,0.000000,1.000000,0.000000
