timestamp_ms,x,y,z,roll,pitch,yaw,target_x,target_y,target_z,target_yaw
1746713472741.000000,-0.826117,0.058531,0.867155,0.223970,-0.069670,-0.069089,0.000000,0.000000,1.000000,0.000000
1746713472868.000000,-0.836402,0.060978,0.861108,0.223512,-0.055363,-0.058804,0.000000,0.000000,1.000000,0.000000
1746713472968.000000,-0.843828,0.062992,0.855904,0.224602,-0.058085,-0.065192,0.000000,0.000000,1.000000,0.000000
1746713473069.000000,-0.850628,0.065593,0.850493,0.209202,-0.047388,-0.060075,0.000000,0.000000,1.000000,0.000000
1746713473169.000000,-0.856513,0.067347,0.846677,0.214961,-0.058705,-0.067588,0.000000,0.000000,1.000000,0.000000
1746713473269.000000,-0.861774,0.069735,0.842299,0.231280,-0.062158,-0.071310,0.000000,0.000000,1.000000,0.000000
1746713473369.000000,-0.867165,0.071695,0.839654,0.228563,-0.069904,-0.073723,0.000000,0.000000,1.000000,0.000000
1746713473470.000000,-0.871528,0.072986,0.838222,0.232060,-0.070376,-0.069510,0.000000,0.000000,1.000000,0.000000
1746713473570.000000,-0.876078,0.074228,0.836352,0.213063,-0.056622,-0.058888,0.000000,0.000000,1.000000,0.000000
1746713473670.000000,-0.879674,0.075436,0.836253,0.218656,-0.053483,-0.058795,0.000000,0.000000,1.000000,0.000000
1746713473770.000000,-0.882639,0.076545,0.837241,0.229422,-0.064941,-0.075267,0.000000,0.000000,1.000000,0.000000
1746713473870.000000,-0.884935,0.077228,0.839041,0.227105,-0.053813,-0.067394,0.000000,0.000000,1.000000,0.000000
1746713473970.000000,-0.887506,0.078201,0.841591,0.233592,-0.062713,-0.069375,0.000000,0.000000,1.000000,0.000000
1746713474070.000000,-0.889114,0.078802,0.842578,0.222534,-0.077017,-0.070535,0.000000,0.000000,1.000000,0.000000
1746713474171.000000,-0.894415,0.080522,0.847319,0.210167,-0.071895,-0.071819,0.000000,0.000000,1.000000,0.000000
1746713474271.000000,-0.898182,0.081978,0.850483,0.212740,-0.069776,-0.067365,0.000000,0.000000,1.000000,0.000000
1746713474371.000000,-0.901679,0.083490,0.854093,0.230384,-0.070773,-0.074440,0.000000,0.000000,1.000000,0.000000
1746713474471.000000,-0.906484,0.085621,0.858299,0.223713,-0.069726,-0.076061,0.000000,0.000000,1.000000,0.000000
1746713474572.000000,-0.911088,0.088050,0.862758,0.224599,-0.061644,-0.070295,0.000000,0.000000,1.000000,0.000000
1746713474672.000000,-0.916769,0.090936,0.867249,0.213507,-0.070572,-0.069989,0.000000,0.000000,1.000000,0.000000
1746713474772.000000,-0.922348,0.094012,0.871428,0.213330,-0.070277,-0.077025,0.000000,0.000000,1.000000,0.000000
1746713474872.000000,-0.928164,0.096773,0.875906,0.209038,-0.071901,-0.072017,0.000000,0.000000,1.000000,0.000000
1746713474973.000000,-0.934753,0.100135,0.881353,0.221613,-0.062127,-0.070415,0.000000,0.000000,1.000000,0.000000
1746713475073.000000,-0.941265,0.103715,0.886650,0.209541,-0.073857,-0.072380,0.000000,0.000000,1.000000,0.000000
1746713475173.000000,-0.948073,0.107538,0.891224,0.204682,-0.074470,-0.071639,0.000000,0.000000,1.000000,0.000000
1746713475273.000000,-0.952381,0.109903,0.893464,0.211416,-0.083227,-0.072083,0.000000,0.000000,1.000000,0.000000
1746713475374.000000,-0.962550,0.115710,0.898077,0.206829,-0.065381,-0.073026,0.000000,0.000000,1.000000,0.000000
1746713475474.000000,-0.967593,0.118649,0.900063,0.207173,-0.067393,-0.068821,0.000000,0.000000,1.000000,0.000000
1746713475574.000000,-0.976375,0.123065,0.902469,0.208061,-0.066252,-0.071665,0.000000,0.000000,1.000000,0.000000
1746713475674.000000,-0.986704,0.128351,0.905646,0.226372,-0.075375,-0.085730,0.000000,0.000000,1.000000,0.000000
1746713475775.000000,-0.992501,0.131825,0.908016,0.226561,-0.079180,-0.089573,0.000000,0.000000,1.000000,0.000000
1746713475875.000000,-0.999342,0.135113,0.912248,0.205503,-0.073733,-0.065064,0.000000,0.000000,1.000000,0.000000
1746713475975.000000,-1.008347,0.139691,0.915068,0.225562,-0.072205,-0.087901,0.000000,0.000000,1.000000,0.000000
1746713476075.000000,-1.015614,0.143724,0.919017,0.214806,-0.065220,-0.072006,0.000000,0.000000,1.000000,0.000000
1746713476175.000000,-1.023892,0.148223,0.921816,0.219178,-0.069938,-0.082141,0.000000,0.000000,1.000000,0.000000
1746713476276.000000,-1.030692,0.152218,0.925380,0.209231,-0.054449,-0.069328,0.000000,0.000000,1.000000,0.000000
1746713476376.000000,-1.039690,0.157233,0.927485,0.216370,-0.074213,-0.075170,0.000000,0.000000,1.000000,0.000000
1746713476476.000000,-1.047568,0.161997,0.930186,0.244207,-0.083976,-0.095420,0.000000,0.000000,1.000000,0.000000
1746713476576.000000,-1.056118,0.165922,0.931779,0.231088,-0.082816,-0.086792,0.000000,0.000000,1.000000,0.000000
1746713476676.000000,-1.063744,0.169915,0.933254,0.231012,-0.084283,-0.090670,0.000000,0.000000,1.000000,0.000000
1746713476777.000000,-1.072952,0.173329,0.934139,0.231746,-0.084247,-0.085548,0.000000,0.000000,1.000000,0.000000
1746713476877.000000,-1.079984,0.176272,0.935975,0.224120,-0.068473,-0.075612,0.000000,0.000000,1.000000,0.000000
1746713476977.000000,-1.087380,0.179578,0.937128,0.197843,-0.057498,-0.060627,0.000000,0.000000,1.000000,0.000000
1746713477077.000000,-1.096857,0.182034,0.936533,0.223060,-0.072412,-0.082546,0.000000,0.000000,1.000000,0.000000
1746713477178.000000,-1.105343,0.184405,0.936590,0.230351,-0.070478,-0.090827,0.000000,0.000000,1.000000,0.000000
1746713477278.000000,-1.113491,0.187355,0.937057,0.224109,-0.080460,-0.085301,0.000000,0.000000,1.000000,0.000000
1746713477378.000000,-1.122675,0.189622,0.936665,0.232209,-0.073717,-0.086391,0.000000,0.000000,1.000000,0.000000
1746713477478.000000,-1.130275,0.191978,0.937666,0.224380,-0.079847,-0.084474,0.000000,0.000000,1.000000,0.000000
1746713477579.000000,-1.139587,0.194897,0.937247,0.219046,-0.069990,-0.090399,0.000000,0.000000,1.000000,0.000000
1746713477679.000000,-1.149261,0.197822,0.937704,0.236011,-0.070996,-0.085861,0.000000,0.000000,1.000000,0.000000
1746713477779.000000,-1.159127,0.200947,0.937033,0.226418,-0.076388,-0.097775,0.000000,0.000000,1.000000,0.000000
1746713477879.000000,-1.166788,0.203005,0.939295,0.228164,-0.073273,-0.084448,0.000000,0.000000,1.000000,0.000000
1746713477979.000000,-1.176180,0.205438,0.939164,0.210949,-0.073966,-0.077185,0.000000,0.000000,1.000000,0.000000
1746713478080.000000,-1.187124,0.208827,0.938415,0.243157,-0.066838,-0.097353,0.000000,0.000000,1.000000,0.000000
1746713478180.000000,-1.194510,0.209425,0.940030,0.218105,-0.080974,-0.083445,0.000000,0.000000,1.000000,0.000000
1746713478280.000000,-1.204196,0.212048,0.938065,0.231355,-0.076226,-0.093845,0.000000,0.000000,1.000000,0.000000
1746713478381.000000,-1.211297,0.212778,0.939262,0.228521,-0.067833,-0.079934,0.000000,0.000000,1.000000,0.000000
1746713478481.000000,-1.220408,0.214276,0.938655,0.231558,-0.078293,-0.088632,0.000000,0.000000,1.000000,0.000000
1746713478581.000000,-1.228039,0.215532,0.938812,0.224055,-0.069794,-0.088914,0.000000,0.000000,1.000000,0.000000
1746713478681.000000,-1.237018,0.215630,0.940791,0.221267,-0.073955,-0.078876,0.000000,0.000000,1.000000,0.000000
1746713478782.000000,-1.245466,0.215930,0.941444,0.228645,-0.065670,-0.079375,0.000000,0.000000,1.000000,0.000000
1746713478882.000000,-1.254608,0.216716,0.941880,0.224312,-0.063543,-0.088879,0.000000,0.000000,1.000000,0.000000
1746713478982.000000,-1.265541,0.217474,0.941269,0.234150,-0.065017,-0.092615,0.000000,0.000000,1.000000,0.000000
1746713479083.000000,-1.274162,0.217280,0.941469,0.232517,-0.065510,-0.096792,0.000000,0.000000,1.000000,0.000000
1746713479183.000000,-1.283151,0.217125,0.941885,0.238810,-0.067576,-0.101326,0.000000,0.000000,1.000000,0.000000
1746713479283.000000,-1.290058,0.215655,0.944070,0.220880,-0.057815,-0.084145,0.000000,0.000000,1.000000,0.000000
1746713479383.000000,-1.299506,0.215887,0.945692,0.227789,-0.073286,-0.091240,0.000000,0.000000,1.000000,0.000000
1746713479483.000000,-1.308205,0.215840,0.949739,0.236873,-0.073286,-0.101115,0.000000,0.000000,1.000000,0.000000
1746713479584.000000,-1.315248,0.214761,0.956968,0.230492,-0.070141,-0.081327,0.000000,0.000000,1.000000,0.000000
1746713479684.000000,-1.323973,0.213750,0.964425,0.229443,-0.064197,-0.088585,0.000000,0.000000,1.000000,0.000000
1746713479785.000000,-1.336005,0.214278,0.968701,0.238434,-0.065981,-0.091798,0.000000,0.000000,1.000000,0.000000
1746713479885.000000,-1.342209,0.212035,0.976784,0.236597,-0.076650,-0.094868,0.000000,0.000000,1.000000,0.000000
1746713479985.000000,-1.350501,0.210565,0.981682,0.238686,-0.065460,-0.095986,0.000000,0.000000,1.000000,0.000000
1746713480085.000000,-1.358967,0.208753,0.985387,0.232477,-0.062769,-0.098391,0.000000,0.000000,1.000000,0.000000
1746713480186.000000,-1.367315,0.207111,0.987599,0.227461,-0.068146,-0.091494,0.000000,0.000000,1.000000,0.000000
1746713480286.000000,-1.375457,0.205435,0.988175,0.229353,-0.067126,-0.092327,0.000000,0.000000,1.000000,0.000000
1746713480386.000000,-1.381636,0.204686,0.987675,0.219768,-0.065172,-0.083901,0.000000,0.000000,1.000000,0.000000
1746713480486.000000,-1.395214,0.205236,0.981716,0.227641,-0.062580,-0.087626,0.000000,0.000000,1.000000,0.000000
1746713480587.000000,-1.399383,0.201409,0.983026,0.219008,-0.078320,-0.083757,0.000000,0.000000,1.000000,0.000000
1746713480687.000000,-1.415054,0.201783,0.975814,0.227062,-0.056484,-0.083347,0.000000,0.000000,1.000000,0.000000
1746713480787.000000,-1.424693,0.200152,0.972896,0.231920,-0.070536,-0.095078,0.000000,0.000000,1.000000,0.000000
1746713480888.000000,-1.434731,0.197585,0.970241,0.213349,-0.060653,-0.082063,0.000000,0.000000,1.000000,0.000000
1746713480988.000000,-1.445384,0.196385,0.968334,0.222915,-0.052091,-0.077313,0.000000,0.000000,1.000000,0.000000
1746713481088.000000,-1.454598,0.195174,0.968327,0.218098,-0.038258,-0.068812,0.000000,0.000000,1.000000,0.000000
1746713481188.000000,-1.463988,0.193366,0.968979,0.224328,-0.064408,-0.083532,0.000000,0.000000,1.000000,0.000000
1746713481288.000000,-1.468305,0.190951,0.973479,0.210778,-0.058886,-0.070262,0.000000,0.000000,1.000000,0.000000
1746713481388.000000,-1.484014,0.191394,0.968333,0.222783,-0.065863,-0.088313,0.000000,0.000000,1.000000,0.000000
1746713481489.000000,-1.492893,0.188719,0.969157,0.232316,-0.081769,-0.090224,0.000000,0.000000,1.000000,0.000000
1746713481589.000000,-1.503470,0.187593,0.969374,0.215567,-0.064805,-0.090221,0.000000,0.000000,1.000000,0.000000
1746713481689.000000,-1.510328,0.184886,0.973231,0.201927,-0.051942,-0.057229,0.000000,0.000000,1.000000,0.000000
1746713481790.000000,-1.519688,0.183108,0.973259,0.235252,-0.071482,-0.090739,0.000000,0.000000,1.000000,0.000000
1746713481890.000000,-1.530382,0.181457,0.974466,0.228850,-0.052458,-0.090689,0.000000,0.000000,1.000000,0.000000
1746713481990.000000,-1.541198,0.179740,0.975260,0.223242,-0.062947,-0.102710,0.000000,0.000000,1.000000,0.000000
1746713482090.000000,-1.550057,0.177999,0.977854,0.214661,-0.058046,-0.072799,0.000000,0.000000,1.000000,0.000000
1746713482190.000000,-1.556331,0.175412,0.983746,0.268686,-0.077687,-0.121979,0.000000,0.000000,1.000000,0.000000
1746713482291.000000,-1.571821,0.174864,0.982399,0.210671,-0.056460,-0.087289,0.000000,0.000000,1.000000,0.000000
1746713482391.000000,-1.583874,0.174747,0.983634,0.226001,-0.048112,-0.097869,0.000000,0.000000,1.000000,0.000000
1746713482491.000000,-1.595615,0.175091,0.984897,0.218419,-0.074305,-0.088184,0.000000,0.000000,1.000000,0.000000
1746713482591.000000,-1.597382,0.173627,0.994625,0.207877,-0.054368,-0.072706,0.000000,0.000000,1.000000,0.000000
1746713482692.000000,-1.620802,0.175946,0.988784,0.226074,-0.035967,-0.097700,0.000000,0.000000,1.000000,0.000000
1746713482792.000000,-1.620784,0.174630,0.999074,0.210951,-0.064398,-0.090451,0.000000,0.000000,1.000000,0.000000
1746713482892.000000,-1.642197,0.176476,0.994934,0.209873,-0.042874,-0.061539,0.000000,0.000000,1.000000,0.000000
1746713482992.000000,-1.651549,0.178290,0.998724,0.211566,-0.064987,-0.086472,0.000000,0.000000,1.000000,0.000000
1746713483092.000000,-1.661632,0.178895,0.999739,0.216354,-0.036247,-0.060537,0.000000,0.000000,1.000000,0.000000
1746713483193.000000,-1.673889,0.180377,1.000950,0.200243,-0.044543,-0.071141,0.000000,0.000000,1.000000,0.000000
1746713483293.000000,-1.684463,0.180938,1.002601,0.203662,-0.070466,-0.080932,0.000000,0.000000,1.000000,0.000000
1746713499201.000000,-2.199878,0.112159,0.762241,0.182546,0.055716,0.417300,0.000000,0.000000,1.000000,0.000000
1746713499302.000000,-2.205635,0.108980,0.813622,0.185680,0.057945,0.421404,0.000000,0.000000,1.000000,0.000000
1746713499402.000000,-2.203074,0.105849,0.858959,0.192588,0.048694,0.424404,0.000000,0.000000,1.000000,0.000000
1746713499502.000000,-2.203074,0.105849,0.858959,0.192588,0.048694,0.424404,0.000000,0.000000,1.000000,0.000000
1746713499602.000000,-2.209327,0.098284,0.925645,0.225926,0.040554,0.437084,0.000000,0.000000,1.000000,0.000000
1746713499703.000000,-2.213583,0.092167,0.947058,0.224837,0.037698,0.443575,0.000000,0.000000,1.000000,0.000000
1746713499803.000000,-2.216191,0.082900,0.963524,0.219806,0.055032,0.454140,0.000000,0.000000,1.000000,0.000000
1746713499903.000000,-2.221674,0.070672,0.973436,0.238344,0.077512,0.476382,0.000000,0.000000,1.000000,0.000000
1746713500003.000000,-2.228631,0.055820,0.978103,0.232194,0.070565,0.474099,0.000000,0.000000,1.000000,0.000000
1746713500103.000000,-2.237770,0.037696,0.979147,0.218062,0.051641,0.478619,0.000000,0.000000,1.000000,0.000000
1746713500204.000000,-2.240726,0.014788,0.980062,0.222149,0.069456,0.493714,0.000000,0.000000,1.000000,0.000000
1746713500304.000000,-2.254240,-0.007865,0.975384,0.241355,0.073732,0.501775,0.000000,0.000000,1.000000,0.000000
1746713500404.000000,-2.264041,-0.033651,0.971016,0.223404,0.063479,0.511310,0.000000,0.000000,1.000000,0.000000
1746713500504.000000,-2.268715,-0.061955,0.968347,0.233429,0.064668,0.514934,0.000000,0.000000,1.000000,0.000000
1746713500605.000000,-2.282895,-0.090845,0.960829,0.252613,0.068473,0.542735,0.000000,0.000000,1.000000,0.000000
1746713500705.000000,-2.294114,-0.121834,0.956558,0.201217,0.086641,0.552645,0.000000,0.000000,1.000000,0.000000
1746713500805.000000,-2.305083,-0.155066,0.952573,0.218775,0.069833,0.545743,0.000000,0.000000,1.000000,0.000000
1746713500905.000000,-2.312791,-0.189555,0.951577,0.216163,0.045327,0.561081,0.000000,0.000000,1.000000,0.000000
1746713501006.000000,-2.322688,-0.224564,0.948296,0.204023,0.097738,0.596019,0.000000,0.000000,1.000000,0.000000
1746713501106.000000,-2.340772,-0.258503,0.942485,0.171916,0.073352,0.604919,0.000000,0.000000,1.000000,0.000000
1746713501206.000000,-2.345201,-0.296362,0.943131,0.201305,0.091511,0.620291,0.000000,0.000000,1.000000,0.000000
1746713501306.000000,-2.362369,-0.331876,0.938812,0.184829,0.073382,0.606322,0.000000,0.000000,1.000000,0.000000
1746713501406.000000,-2.372458,-0.368727,0.939265,0.162793,0.108038,0.645173,0.000000,0.000000,1.000000,0.000000
1746713501507.000000,-2.382972,-0.405650,0.937528,0.210122,0.073841,0.678656,0.000000,0.000000,1.000000,0.000000
1746713501607.000000,-2.399864,-0.443290,0.936052,0.192280,0.097642,0.661854,0.000000,0.000000,1.000000,0.000000
1746713501707.000000,-2.409874,-0.480286,0.935575,0.188040,0.112898,0.681367,0.000000,0.000000,1.000000,0.000000
1746713501807.000000,-2.416751,-0.515881,0.936240,0.176063,0.065155,0.690655,0.000000,0.000000,1.000000,0.000000
1746713501908.000000,-2.423245,-0.553734,0.938322,0.209605,0.160562,0.726997,0.000000,0.000000,1.000000,0.000000
1746713502008.000000,-2.442081,-0.591758,0.933980,0.182478,0.098596,0.713978,0.000000,0.000000,1.000000,0.000000
1746713502108.000000,-2.455068,-0.629579,0.933860,0.187256,0.114584,0.751014,0.000000,0.000000,1.000000,0.000000
1746713502208.000000,-2.466949,-0.666949,0.933480,0.191090,0.120352,0.761210,0.000000,0.000000,1.000000,0.000000
1746713502309.000000,-2.474269,-0.704169,0.936809,0.245041,0.158081,0.790824,0.000000,0.000000,1.000000,0.000000
1746713502409.000000,-2.478714,-0.743210,0.940773,0.193357,0.130705,0.797447,0.000000,0.000000,1.000000,0.000000
1746713502509.000000,-2.493750,-0.782892,0.939379,0.200543,0.103285,0.836771,0.000000,0.000000,1.000000,0.000000
1746713502609.000000,-2.497613,-0.806043,0.942340,0.190536,0.114912,0.841577,0.000000,0.000000,1.000000,0.000000
1746713502710.000000,-2.503062,-0.852559,0.945959,0.192288,0.146073,0.864292,0.000000,0.000000,1.000000,0.000000
1746713502810.000000,-2.508927,-0.898685,0.950101,0.183344,0.118840,0.877963,0.000000,0.000000,1.000000,0.000000
1746713502910.000000,-2.515124,-0.939945,0.952625,0.155898,0.124417,0.889112,0.000000,0.000000,1.000000,0.000000
1746713503011.000000,-2.515331,-0.984034,0.955920,0.134776,0.132343,0.905339,0.000000,0.000000,1.000000,0.000000
1746713503111.000000,-2.529011,-1.027170,0.951967,0.166322,0.131963,0.913818,0.000000,0.000000,1.000000,0.000000
1746713503211.000000,-2.632631,-1.091697,0.899470,0.156681,0.169594,0.924532,0.000000,0.000000,1.000000,0.000000
1746713503312.000000,-2.579163,-1.123142,0.923387,-0.054026,2.475511,0.513147,0.000000,0.000000,1.000000,0.000000
1746713503412.000000,-2.579163,-1.123142,0.923387,-0.054026,2.475511,0.513147,0.000000,0.000000,1.000000,0.000000
1746713503512.000000,-2.579163,-1.123142,0.923387,-0.054026,2.475511,0.513147,0.000000,0.000000,1.000000,0.000000
1746713503613.000000,-2.579163,-1.123142,0.923387,-0.054026,2.475511,0.513147,0.000000,0.000000,1.000000,0.000000
1746713503713.000000,-2.562741,-1.265714,0.920602,0.188498,-0.000759,1.111884,0.000000,0.000000,1.000000,0.000000
1746713503813.000000,-2.563713,-1.295337,0.914492,0.128266,-0.101446,1.098057,0.000000,0.000000,1.000000,0.000000
1746713503914.000000,-2.560947,-1.321926,0.905233,0.192549,-0.076932,1.140110,0.000000,0.000000,1.000000,0.000000
1746713504014.000000,-2.560947,-1.321926,0.905233,0.192549,-0.076932,1.140110,0.000000,0.000000,1.000000,0.000000
1746713504114.000000,-2.560947,-1.321926,0.905233,0.192549,-0.076932,1.140110,0.000000,0.000000,1.000000,0.000000
1746713504214.000000,-2.529480,-1.391489,0.902268,0.232145,-0.136343,1.175357,0.000000,0.000000,1.000000,0.000000
1746713504314.000000,-2.529480,-1.391489,0.902268,0.232145,-0.136343,1.175357,0.000000,0.000000,1.000000,0.000000
1746713540893.000000,-0.232882,-0.093264,0.884084,0.219738,-0.084526,-0.158632,0.000000,0.000000,1.000000,0.000000
1746713540993.000000,-0.234808,-0.094255,0.878413,0.225334,-0.075026,-0.161776,3.000000,0.000000,1.000000,1.500000
1746713541094.000000,-0.235869,-0.095009,0.872175,0.234578,-0.072808,-0.161988,3.000000,0.000000,1.000000,1.500000
1746713541194.000000,-0.236868,-0.095486,0.866259,0.235365,-0.070675,-0.163374,3.000000,0.000000,1.000000,1.500000
1746713541294.000000,-0.237306,-0.095993,0.860718,0.237364,-0.087769,-0.163508,3.000000,0.000000,1.000000,1.500000
1746713541394.000000,-0.238083,-0.096893,0.855464,0.223149,-0.072869,-0.163505,3.000000,0.000000,1.000000,1.500000
1746713541495.000000,-0.238214,-0.097393,0.851992,0.223114,-0.078999,-0.164354,3.000000,0.000000,1.000000,1.500000
1746713541595.000000,-0.238085,-0.097855,0.849594,0.229598,-0.069396,-0.161543,3.000000,0.000000,1.000000,1.500000
1746713541695.000000,-0.238077,-0.098202,0.848709,0.239655,-0.083823,-0.162970,3.000000,0.000000,1.000000,1.500000
1746713541795.000000,-0.238352,-0.099302,0.847615,0.228237,-0.077300,-0.162371,3.000000,0.000000,1.000000,1.500000
1746713541896.000000,-0.238835,-0.100254,0.847916,0.237917,-0.084244,-0.168134,3.000000,0.000000,1.000000,1.500000
1746713541996.000000,-0.239169,-0.101235,0.849136,0.223937,-0.084295,-0.162676,3.000000,0.000000,1.000000,1.500000
1746713542096.000000,-0.239780,-0.102133,0.850550,0.220446,-0.081828,-0.161811,3.000000,0.000000,1.000000,1.500000
1746713542196.000000,-0.240841,-0.102949,0.852636,0.229051,-0.067048,-0.163618,3.000000,0.000000,1.000000,1.500000
1746713542297.000000,-0.242360,-0.103429,0.853763,0.221254,-0.079931,-0.160920,3.000000,0.000000,1.000000,1.500000
1746713542397.000000,-0.243502,-0.104015,0.855244,0.222076,-0.075353,-0.161680,3.000000,0.000000,1.000000,1.500000
1746713542497.000000,-0.244694,-0.104355,0.857423,0.239884,-0.080191,-0.168649,3.000000,0.000000,1.000000,1.500000
1746713542597.000000,-0.246081,-0.104977,0.859135,0.225252,-0.079921,-0.157263,3.000000,0.000000,1.000000,1.500000
1746713542698.000000,-0.247784,-0.105407,0.860374,0.228846,-0.091628,-0.180525,3.000000,0.000000,1.000000,1.500000
1746713542798.000000,-0.248805,-0.105371,0.863990,0.208123,-0.091642,-0.193715,3.000000,0.000000,1.000000,1.500000
1746713542899.000000,-0.252142,-0.104295,0.868331,0.215021,-0.112467,-0.208371,3.000000,0.000000,1.000000,1.500000
1746713542999.000000,-0.256414,-0.101644,0.874128,0.216226,-0.129541,-0.217557,3.000000,0.000000,1.000000,1.500000
1746713543099.000000,-0.263578,-0.097969,0.878102,0.227717,-0.131118,-0.239445,3.000000,0.000000,1.000000,1.500000
1746713543199.000000,-0.273130,-0.092135,0.883130,0.194118,-0.128971,-0.238985,3.000000,0.000000,1.000000,1.500000
1746713543300.000000,-0.285259,-0.086007,0.886614,0.211742,-0.126150,-0.266909,3.000000,0.000000,1.000000,1.500000
1746713543400.000000,-0.298563,-0.078590,0.890808,0.212111,-0.129263,-0.279598,3.000000,0.000000,1.000000,1.500000
1746713543500.000000,-0.313822,-0.069896,0.894769,0.208343,-0.120211,-0.291322,3.000000,0.000000,1.000000,1.500000
1746713543600.000000,-0.330716,-0.061050,0.897620,0.204819,-0.138646,-0.304553,3.000000,0.000000,1.000000,1.500000
1746713543701.000000,-0.349179,-0.051413,0.899886,0.200510,-0.142968,-0.308693,3.000000,0.000000,1.000000,1.500000
1746713543801.000000,-0.368466,-0.040953,0.901120,0.195925,-0.145738,-0.321304,3.000000,0.000000,1.000000,1.500000
1746713543901.000000,-0.389576,-0.030127,0.901108,0.205775,-0.133974,-0.334692,3.000000,0.000000,1.000000,1.500000
1746713544001.000000,-0.410976,-0.018828,0.899768,0.200318,-0.137669,-0.350408,3.000000,0.000000,1.000000,1.500000
1746713544101.000000,-0.432918,-0.006485,0.898037,0.196804,-0.131918,-0.361095,3.000000,0.000000,1.000000,1.500000
1746713544202.000000,-0.454495,0.005606,0.894201,0.178790,-0.150348,-0.371404,3.000000,0.000000,1.000000,1.500000
1746713544302.000000,-0.477914,0.019245,0.889345,0.187397,-0.154709,-0.382060,3.000000,0.000000,1.000000,1.500000
1746713544402.000000,-0.501497,0.033005,0.886991,0.178522,-0.157365,-0.392259,3.000000,0.000000,1.000000,1.500000
1746713544502.000000,-0.525572,0.048196,0.886242,0.193889,-0.167507,-0.405919,3.000000,0.000000,1.000000,1.500000
1746713544602.000000,-0.549996,0.063544,0.885257,0.182908,-0.160268,-0.416282,3.000000,0.000000,1.000000,1.500000
1746713544703.000000,-0.570271,0.076709,0.884054,0.176362,-0.165737,-0.427879,3.000000,0.000000,1.000000,1.500000
1746713544803.000000,-0.601556,0.096638,0.879905,0.189908,-0.158581,-0.446698,3.000000,0.000000,1.000000,1.500000
1746713544903.000000,-0.627744,0.114410,0.876173,0.191284,-0.174491,-0.449631,3.000000,0.000000,1.000000,1.500000
1746713545003.000000,-0.654981,0.132853,0.870916,0.185846,-0.157715,-0.464591,3.000000,0.000000,1.000000,1.500000
1746713545103.000000,-0.675597,0.146210,0.865315,0.156888,-0.187601,-0.477041,3.000000,0.000000,1.000000,1.500000
1746713545204.000000,-0.704044,0.165642,0.859436,0.177127,-0.156120,-0.501117,3.000000,0.000000,1.000000,1.500000
1746713545304.000000,-0.733750,0.186912,0.853722,0.177974,-0.156656,-0.515186,3.000000,0.000000,1.000000,1.500000
1746713545404.000000,-0.763139,0.208728,0.847470,0.191372,-0.146497,-0.526004,3.000000,0.000000,1.000000,1.500000
1746713545504.000000,-0.798736,0.235801,0.838122,0.194656,-0.179539,-0.530563,3.000000,0.000000,1.000000,1.500000
1746713545604.000000,-0.821628,0.253335,0.832837,0.182591,-0.181892,-0.537671,3.000000,0.000000,1.000000,1.500000
1746713545705.000000,-0.851365,0.275984,0.826493,0.172137,-0.175444,-0.550759,3.000000,0.000000,1.000000,1.500000
1746713596458.000000,-0.407452,-0.224101,0.856378,0.224718,-0.062051,-0.029520,0.000000,0.000000,1.000000,0.000000
1746713596559.000000,-0.406389,-0.225708,0.859637,0.224026,-0.052085,-0.034088,3.000000,0.000000,1.000000,1.500000
1746713596659.000000,-0.405514,-0.227040,0.863623,0.243362,-0.063379,-0.038621,3.000000,0.000000,1.000000,1.500000
1746713596759.000000,-0.404738,-0.229001,0.867508,0.223783,-0.060372,-0.030249,3.000000,0.000000,1.000000,1.500000
1746713596859.000000,-0.403867,-0.230382,0.870923,0.242622,-0.065189,-0.032933,3.000000,0.000000,1.000000,1.500000
1746713596959.000000,-0.403609,-0.232955,0.872611,0.227728,-0.076005,-0.032766,3.000000,0.000000,1.000000,1.500000
1746713597060.000000,-0.403680,-0.235418,0.874125,0.229379,-0.062725,-0.031634,3.000000,0.000000,1.000000,1.500000
1746713597160.000000,-0.403606,-0.238242,0.875097,0.218671,-0.064691,-0.032324,3.000000,0.000000,1.000000,1.500000
1746713597260.000000,-0.404233,-0.241522,0.875225,0.214963,-0.066379,-0.026981,3.000000,0.000000,1.000000,1.500000
1746713597360.000000,-0.404794,-0.244764,0.875234,0.210808,-0.057180,-0.034147,3.000000,0.000000,1.000000,1.500000
1746713597461.000000,-0.405833,-0.247738,0.873128,0.220473,-0.076968,-0.031325,3.000000,0.000000,1.000000,1.500000
1746713597561.000000,-0.407179,-0.250853,0.869605,0.226416,-0.057540,-0.038588,3.000000,0.000000,1.000000,1.500000
1746713597661.000000,-0.409071,-0.253331,0.866409,0.221975,-0.067288,-0.033069,3.000000,0.000000,1.000000,1.500000
1746713597761.000000,-0.411570,-0.256271,0.862647,0.227683,-0.075285,-0.035387,3.000000,0.000000,1.000000,1.500000
1746713597862.000000,-0.413632,-0.259102,0.860212,0.219403,-0.050405,-0.048380,3.000000,0.000000,1.000000,1.500000
1746713597962.000000,-0.414960,-0.261799,0.857800,0.218098,-0.053998,-0.055954,3.000000,0.000000,1.000000,1.500000
1746713598062.000000,-0.415052,-0.264541,0.856151,0.209733,-0.059131,-0.071871,3.000000,0.000000,1.000000,1.500000
1746713598162.000000,-0.412921,-0.265651,0.855461,0.226015,-0.056279,-0.084265,3.000000,0.000000,1.000000,1.500000
1746713598262.000000,-0.408881,-0.267144,0.855626,0.206256,-0.048365,-0.090116,3.000000,0.000000,1.000000,1.500000
1746713598363.000000,-0.403256,-0.267359,0.856497,0.215146,-0.071108,-0.103106,3.000000,0.000000,1.000000,1.500000
1746713598463.000000,-0.395526,-0.266120,0.858040,0.204288,-0.061149,-0.115173,3.000000,0.000000,1.000000,1.500000
1746713598563.000000,-0.386500,-0.264273,0.859512,0.209154,-0.062084,-0.127176,3.000000,0.000000,1.000000,1.500000
1746713598664.000000,-0.379669,-0.262295,0.860759,0.228484,-0.069613,-0.138345,3.000000,0.000000,1.000000,1.500000
1746713598764.000000,-0.364462,-0.258443,0.862966,0.217071,-0.075980,-0.154339,3.000000,0.000000,1.000000,1.500000
1746713598865.000000,-0.355212,-0.256098,0.864481,0.220101,-0.069702,-0.161290,3.000000,0.000000,1.000000,1.500000
1746713598965.000000,-0.340759,-0.252547,0.867228,0.216172,-0.071565,-0.172473,3.000000,0.000000,1.000000,1.500000
1746713599065.000000,-0.325924,-0.249093,0.870885,0.229532,-0.079500,-0.185716,3.000000,0.000000,1.000000,1.500000
1746713599166.000000,-0.309914,-0.245675,0.873742,0.207398,-0.083916,-0.191423,3.000000,0.000000,1.000000,1.500000
1746713599266.000000,-0.293277,-0.242383,0.876509,0.222440,-0.083371,-0.216276,3.000000,0.000000,1.000000,1.500000
1746713599366.000000,-0.276297,-0.239297,0.879653,0.215968,-0.076976,-0.222970,3.000000,0.000000,1.000000,1.500000
1746713599467.000000,-0.259037,-0.236501,0.882948,0.216659,-0.082405,-0.234250,3.000000,0.000000,1.000000,1.500000
1746713599567.000000,-0.239252,-0.232947,0.887092,0.229040,-0.083453,-0.247921,3.000000,0.000000,1.000000,1.500000
1746713599668.000000,-0.221694,-0.229598,0.890424,0.212609,-0.096285,-0.256087,3.000000,0.000000,1.000000,1.500000
1746713599768.000000,-0.202667,-0.226367,0.894542,0.198620,-0.096125,-0.265294,3.000000,0.000000,1.000000,1.500000
1746713599868.000000,-0.184408,-0.223042,0.898742,0.218504,-0.084852,-0.284541,3.000000,0.000000,1.000000,1.500000
1746713599968.000000,-0.164881,-0.220022,0.903250,0.220755,-0.100982,-0.299648,3.000000,0.000000,1.000000,1.500000
1746713600069.000000,-0.146104,-0.217475,0.907713,0.216741,-0.105976,-0.312466,3.000000,0.000000,1.000000,1.500000
1746713600169.000000,-0.126971,-0.214852,0.912745,0.196471,-0.117477,-0.321395,3.000000,0.000000,1.000000,1.500000
1746713600269.000000,-0.107865,-0.212905,0.918121,0.202516,-0.106045,-0.343557,3.000000,0.000000,1.000000,1.500000
1746713600370.000000,-0.089725,-0.210834,0.923399,0.212149,-0.108781,-0.360484,3.000000,0.000000,1.000000,1.500000
1746713600470.000000,-0.071052,-0.208804,0.929429,0.204869,-0.113618,-0.373476,3.000000,0.000000,1.000000,1.500000
1746713600570.000000,-0.052428,-0.206869,0.935526,0.205165,-0.106376,-0.388462,3.000000,0.000000,1.000000,1.500000
1746713600670.000000,-0.034115,-0.204890,0.941981,0.194134,-0.118930,-0.403004,3.000000,0.000000,1.000000,1.500000
1746713600771.000000,-0.015582,-0.203126,0.947801,0.204056,-0.123656,-0.426138,3.000000,0.000000,1.000000,1.500000
1746713600871.000000,0.002500,-0.201237,0.953691,0.205676,-0.128760,-0.445336,3.000000,0.000000,1.000000,1.500000
1746713600971.000000,0.020178,-0.199645,0.959204,0.208445,-0.139745,-0.465552,3.000000,0.000000,1.000000,1.500000
1746713601072.000000,0.038248,-0.198464,0.963961,0.195785,-0.145900,-0.481120,3.000000,0.000000,1.000000,1.500000
1746713601172.000000,0.055081,-0.197832,0.967821,0.205022,-0.132298,-0.510157,3.000000,0.000000,1.000000,1.500000
1746713601272.000000,0.071212,-0.198011,0.970621,0.199765,-0.137995,-0.528780,3.000000,0.000000,1.000000,1.500000
1746713601372.000000,0.087496,-0.199009,0.973251,0.195021,-0.142392,-0.551164,3.000000,0.000000,1.000000,1.500000
1746713601472.000000,0.104567,-0.200845,0.975723,0.197162,-0.135637,-0.579332,3.000000,0.000000,1.000000,1.500000
1746713601573.000000,0.121177,-0.203783,0.977346,0.185761,-0.141943,-0.596361,3.000000,0.000000,1.000000,1.500000
1746713601673.000000,0.137749,-0.207441,0.978502,0.182369,-0.148544,-0.619571,3.000000,0.000000,1.000000,1.500000
1746713601773.000000,0.154096,-0.211917,0.980118,0.180735,-0.149672,-0.639605,3.000000,0.000000,1.000000,1.500000
1746713601873.000000,0.170303,-0.217178,0.982452,0.179492,-0.153238,-0.663730,3.000000,0.000000,1.000000,1.500000
1746713601973.000000,0.186434,-0.223083,0.984947,0.167752,-0.157081,-0.682238,3.000000,0.000000,1.000000,1.500000
1746713602073.000000,0.202089,-0.229138,0.984974,0.161803,-0.169012,-0.702645,3.000000,0.000000,1.000000,1.500000
1746713602174.000000,0.217302,-0.235092,0.982604,0.154389,-0.165254,-0.722278,3.000000,0.000000,1.000000,1.500000
1746713602274.000000,0.231951,-0.242035,0.978999,0.172024,-0.167832,-0.743482,3.000000,0.000000,1.000000,1.500000
1746713602374.000000,0.246813,-0.249996,0.973855,0.171074,-0.164148,-0.759848,3.000000,0.000000,1.000000,1.500000
1746713602475.000000,0.262458,-0.259625,0.969549,0.152609,-0.163439,-0.768370,3.000000,0.000000,1.000000,1.500000
1746713602575.000000,0.278408,-0.271199,0.965658,0.149557,-0.167808,-0.781541,3.000000,0.000000,1.000000,1.500000
1746713602675.000000,0.295018,-0.283814,0.962468,0.153935,-0.178048,-0.793467,3.000000,0.000000,1.000000,1.500000
1746713602775.000000,0.312073,-0.296379,0.959623,0.138800,-0.173625,-0.803128,3.000000,0.000000,1.000000,1.500000
1746713602875.000000,0.328839,-0.309567,0.957327,0.136118,-0.181574,-0.817540,3.000000,0.000000,1.000000,1.500000
1746713602976.000000,0.345143,-0.321961,0.956131,0.128518,-0.188051,-0.830685,3.000000,0.000000,1.000000,1.500000
1746713603076.000000,0.362072,-0.334431,0.956834,0.127580,-0.179832,-0.842588,3.000000,0.000000,1.000000,1.500000
1746713603176.000000,0.377800,-0.345578,0.958791,0.133751,-0.184322,-0.868197,3.000000,0.000000,1.000000,1.500000
1746713603276.000000,0.393109,-0.356103,0.961666,0.132384,-0.184895,-0.885173,3.000000,0.000000,1.000000,1.500000
1746713603377.000000,0.409020,-0.366735,0.964826,0.130188,-0.187223,-0.904633,3.000000,0.000000,1.000000,1.500000
1746713603477.000000,0.425165,-0.378680,0.968286,0.134264,-0.191613,-0.924458,3.000000,0.000000,1.000000,1.500000
1746713603577.000000,0.435435,-0.386850,0.970356,0.126301,-0.191877,-0.934275,3.000000,0.000000,1.000000,1.500000
1746713603678.000000,0.454580,-0.403487,0.973886,0.124487,-0.190431,-0.959826,3.000000,0.000000,1.000000,1.500000
1746713603778.000000,0.466544,-0.414305,0.976276,0.121775,-0.188127,-0.973181,3.000000,0.000000,1.000000,1.500000
1746713603878.000000,0.481404,-0.427850,0.978916,0.111484,-0.196793,-0.982631,3.000000,0.000000,1.000000,1.500000
1746713603979.000000,0.497235,-0.443210,0.980959,0.112255,-0.199565,-1.000228,3.000000,0.000000,1.000000,1.500000
1746713604079.000000,0.513180,-0.459195,0.982895,0.113197,-0.200784,-1.019061,3.000000,0.000000,1.000000,1.500000
1746713604179.000000,0.528535,-0.475120,0.984531,0.108355,-0.195266,-1.037679,3.000000,0.000000,1.000000,1.500000
1746713604279.000000,0.544555,-0.492113,0.986025,0.105281,-0.199864,-1.055614,3.000000,0.000000,1.000000,1.500000
1746713604380.000000,0.560814,-0.509700,0.988077,0.126069,-0.183754,-1.077871,3.000000,0.000000,1.000000,1.500000
1746713604480.000000,0.575973,-0.526334,0.988158,0.096412,-0.202853,-1.086102,3.000000,0.000000,1.000000,1.500000
1746713604580.000000,0.592106,-0.543986,0.988761,0.103565,-0.202981,-1.107335,3.000000,0.000000,1.000000,1.500000
1746713604680.000000,0.608454,-0.561846,0.989175,0.097066,-0.213086,-1.122125,3.000000,0.000000,1.000000,1.500000
1746713604781.000000,0.624384,-0.579434,0.991117,0.114339,-0.201011,-1.146312,3.000000,0.000000,1.000000,1.500000
1746713604881.000000,0.640640,-0.597308,0.993676,0.109403,-0.202803,-1.164312,3.000000,0.000000,1.000000,1.500000
1746713604981.000000,0.655763,-0.614422,0.997314,0.084922,-0.217823,-1.170670,3.000000,0.000000,1.000000,1.500000
1746713605081.000000,0.671137,-0.631630,1.002796,0.090806,-0.211374,-1.193475,3.000000,0.000000,1.000000,1.500000
1746713605182.000000,0.684709,-0.647425,1.009005,0.099925,-0.218092,-1.208381,3.000000,0.000000,1.000000,1.500000
1746713605282.000000,0.696646,-0.662716,1.015372,0.088511,-0.226099,-1.218389,3.000000,0.000000,1.000000,1.500000
1746713605382.000000,0.706664,-0.676776,1.020277,0.076721,-0.219879,-1.227764,3.000000,0.000000,1.000000,1.500000
1746713605483.000000,0.714812,-0.690470,1.023148,0.070236,-0.224031,-1.236568,3.000000,0.000000,1.000000,1.500000
1746713605583.000000,0.720990,-0.703806,1.023568,0.077954,-0.219121,-1.245863,3.000000,0.000000,1.000000,1.500000
1746713605683.000000,0.724734,-0.716463,1.021869,0.051550,-0.213994,-1.245630,3.000000,0.000000,1.000000,1.500000
1746713605783.000000,0.728085,-0.728063,1.021251,0.055103,-0.188720,-1.260568,3.000000,0.000000,1.000000,1.500000
1746713605884.000000,0.730599,-0.738035,1.021503,0.045438,-0.201301,-1.271170,3.000000,0.000000,1.000000,1.500000
1746713605984.000000,0.733794,-0.746229,1.021769,0.032768,-0.215433,-1.280131,3.000000,0.000000,1.000000,1.500000
1746713606084.000000,0.738900,-0.753640,1.021890,0.042928,-0.204948,-1.311100,3.000000,0.000000,1.000000,1.500000
1746713606184.000000,0.744283,-0.759204,1.021709,0.019853,-0.222419,-1.343331,3.000000,0.000000,1.000000,1.500000
1746713606285.000000,0.748769,-0.762483,1.020581,0.020934,-0.230466,-1.378274,3.000000,0.000000,1.000000,1.500000
1746713606385.000000,0.752977,-0.763405,1.017908,0.024992,-0.220361,-1.414689,3.000000,0.000000,1.000000,1.500000
1746713606485.000000,0.755607,-0.762280,1.014307,0.024848,-0.209325,-1.443177,3.000000,0.000000,1.000000,1.500000
1746713606585.000000,0.757997,-0.760197,1.009352,0.018625,-0.207409,-1.460672,3.000000,0.000000,1.000000,1.500000
1746713606686.000000,0.760496,-0.756005,1.004585,0.016066,-0.215212,-1.481726,3.000000,0.000000,1.000000,1.500000
1746713606786.000000,0.763298,-0.749943,0.999389,0.005904,-0.220245,-1.496274,3.000000,0.000000,1.000000,1.500000
1746713606886.000000,0.765986,-0.742526,0.994130,-0.000285,-0.219834,-1.508547,3.000000,0.000000,1.000000,1.500000
1746713606987.000000,0.768237,-0.733080,0.988905,0.005736,-0.222793,-1.524028,3.000000,0.000000,1.000000,1.500000
1746713607087.000000,0.770479,-0.723098,0.982793,0.008726,-0.228608,-1.534214,3.000000,0.000000,1.000000,1.500000
1746713607187.000000,0.772071,-0.712327,0.974663,0.004780,-0.231825,-1.544647,3.000000,0.000000,1.000000,1.500000
1746713607287.000000,0.772945,-0.701491,0.966362,0.003454,-0.230440,-1.552908,3.000000,0.000000,1.000000,1.500000
1746713607388.000000,0.773084,-0.689732,0.958150,-0.010238,-0.222676,-1.556753,3.000000,0.000000,1.000000,1.500000
1746713607488.000000,0.773164,-0.677354,0.950981,-0.006844,-0.216378,-1.572249,3.000000,0.000000,1.000000,1.500000
1746713607588.000000,0.773123,-0.664141,0.945452,-0.010655,-0.217665,-1.583696,3.000000,0.000000,1.000000,1.500000
1746713607689.000000,0.773509,-0.649343,0.942216,-0.014419,-0.216886,-1.592587,3.000000,0.000000,1.000000,1.500000
1746713607789.000000,0.774120,-0.634369,0.941075,-0.015533,-0.217301,-1.605575,3.000000,0.000000,1.000000,1.500000
1746713607889.000000,0.775325,-0.618566,0.941946,-0.021850,-0.213327,-1.620483,3.000000,0.000000,1.000000,1.500000
1746713607989.000000,0.776317,-0.608708,0.943485,-0.024031,-0.213605,-1.629739,3.000000,0.000000,1.000000,1.500000
1746713608089.000000,0.778518,-0.584334,0.948828,-0.025227,-0.220026,-1.650662,3.000000,0.000000,1.000000,1.500000
1746713608190.000000,0.780649,-0.565842,0.955013,-0.024287,-0.217814,-1.658099,3.000000,0.000000,1.000000,1.500000
1746713608290.000000,0.783203,-0.547058,0.963141,-0.016034,-0.222106,-1.648454,3.000000,0.000000,1.000000,1.500000
1746713608390.000000,0.785786,-0.527932,0.973447,-0.008060,-0.226060,-1.637224,3.000000,0.000000,1.000000,1.500000
1746713608490.000000,0.787564,-0.514147,0.980257,-0.011010,-0.228143,-1.627096,3.000000,0.000000,1.000000,1.500000
1746713608591.000000,0.789595,-0.495498,0.988313,-0.007684,-0.232779,-1.638657,3.000000,0.000000,1.000000,1.500000
1746713608691.000000,0.791239,-0.476015,0.996120,-0.019974,-0.231674,-1.647693,3.000000,0.000000,1.000000,1.500000
1746713608791.000000,0.792316,-0.456634,1.003514,-0.019472,-0.227367,-1.662600,3.000000,0.000000,1.000000,1.500000
1746713608892.000000,0.793472,-0.435049,1.010276,-0.025115,-0.222521,-1.646374,3.000000,0.000000,1.000000,1.500000
1746713608992.000000,0.794335,-0.413268,1.014766,-0.025331,-0.229398,-1.626215,3.000000,0.000000,1.000000,1.500000
1746713609092.000000,0.795105,-0.390033,1.017364,-0.001826,-0.235004,-1.612621,3.000000,0.000000,1.000000,1.500000
1746713609193.000000,0.795046,-0.366686,1.016240,-0.002180,-0.232363,-1.621882,3.000000,0.000000,1.000000,1.500000
1746713609293.000000,0.794484,-0.344938,1.012520,-0.000144,-0.228791,-1.628842,3.000000,0.000000,1.000000,1.500000
1746713609393.000000,0.793460,-0.323634,1.007064,-0.010069,-0.221214,-1.635001,3.000000,0.000000,1.000000,1.500000
1746713609494.000000,0.792747,-0.302712,1.002148,-0.014812,-0.219422,-1.649677,3.000000,0.000000,1.000000,1.500000
1746713609594.000000,0.792118,-0.283088,0.998297,-0.022733,-0.222412,-1.659991,3.000000,0.000000,1.000000,1.500000
1746713609694.000000,0.792088,-0.261845,0.995414,-0.031931,-0.232099,-1.641368,3.000000,0.000000,1.000000,1.500000
1746713609795.000000,0.792305,-0.240645,0.994255,-0.026455,-0.227548,-1.629529,3.000000,0.000000,1.000000,1.500000
1746713609895.000000,0.792451,-0.218052,0.991859,-0.026962,-0.232674,-1.642758,3.000000,0.000000,1.000000,1.500000
1746713609995.000000,0.792467,-0.195530,0.988684,-0.019183,-0.228236,-1.655602,3.000000,0.000000,1.000000,1.500000
1746713610095.000000,0.792443,-0.172230,0.986481,-0.012314,-0.229246,-1.643520,3.000000,0.000000,1.000000,1.500000
1746713610196.000000,0.792343,-0.148719,0.986791,-0.006019,-0.227453,-1.626000,3.000000,0.000000,1.000000,1.500000
1746713610296.000000,0.792132,-0.124439,0.989229,-0.007983,-0.228891,-1.607441,3.000000,0.000000,1.000000,1.500000
1746713610396.000000,0.791336,-0.101798,0.990276,0.001577,-0.236154,-1.616589,3.000000,0.000000,1.000000,1.500000
1746713610497.000000,0.790159,-0.079880,0.990611,0.004285,-0.228648,-1.631804,3.000000,0.000000,1.000000,1.500000
1746713610597.000000,0.788622,-0.058590,0.991656,0.004165,-0.224355,-1.648148,3.000000,0.000000,1.000000,1.500000
1746713610697.000000,0.786908,-0.038212,0.992460,-0.009489,-0.218155,-1.655387,3.000000,0.000000,1.000000,1.500000
1746713610797.000000,0.785528,-0.018779,0.992138,0.001557,-0.223469,-1.647170,3.000000,0.000000,1.000000,1.500000
1746713610897.000000,0.784012,-0.000275,0.991356,0.007814,-0.231477,-1.634303,3.000000,0.000000,1.000000,1.500000
1746713610998.000000,0.782576,0.016605,0.990845,0.008998,-0.226045,-1.633092,3.000000,0.000000,1.000000,1.500000
1746713611098.000000,0.780645,0.032667,0.988756,-0.005015,-0.230897,-1.647810,3.000000,0.000000,1.000000,1.500000
1746713611198.000000,0.779083,0.047562,0.984373,-0.011868,-0.219229,-1.650848,3.000000,0.000000,1.000000,1.500000
1746713611298.000000,0.777662,0.062295,0.978098,-0.004861,-0.216439,-1.640912,3.000000,0.000000,1.000000,1.500000
1746713611398.000000,0.776664,0.076294,0.971515,0.001612,-0.224318,-1.638159,3.000000,0.000000,1.000000,1.500000
1746713611499.000000,0.775654,0.089866,0.963681,-0.009448,-0.228246,-1.648610,3.000000,0.000000,1.000000,1.500000
1746713611599.000000,0.775231,0.102793,0.957088,-0.013637,-0.223322,-1.660903,3.000000,0.000000,1.000000,1.500000
1746713611699.000000,0.775461,0.114842,0.953887,-0.001440,-0.215272,-1.650744,3.000000,0.000000,1.000000,1.500000
1746713611799.000000,0.775665,0.126452,0.953187,0.005141,-0.225528,-1.638527,3.000000,0.000000,1.000000,1.500000
1746713611900.000000,0.776052,0.137504,0.953634,0.012805,-0.228780,-1.634284,3.000000,0.000000,1.000000,1.500000
1746713612000.000000,0.776064,0.147200,0.954738,0.010275,-0.236383,-1.651343,3.000000,0.000000,1.000000,1.500000
1746713612100.000000,0.776327,0.155261,0.958053,0.012024,-0.219407,-1.660601,3.000000,0.000000,1.000000,1.500000
1746713612200.000000,0.776952,0.162912,0.963819,-0.001254,-0.218413,-1.641936,3.000000,0.000000,1.000000,1.500000
1746713612301.000000,0.777527,0.169731,0.971475,-0.002694,-0.229042,-1.629694,3.000000,0.000000,1.000000,1.500000
1746713612401.000000,0.778517,0.175364,0.979254,0.010911,-0.235311,-1.636259,3.000000,0.000000,1.000000,1.500000
1746713612501.000000,0.779406,0.180492,0.985435,-0.008032,-0.231339,-1.647325,3.000000,0.000000,1.000000,1.500000
1746713612601.000000,0.780366,0.185744,0.991167,-0.008205,-0.230841,-1.655370,3.000000,0.000000,1.000000,1.500000
1746713612701.000000,0.781535,0.191279,0.996192,-0.009497,-0.226284,-1.644640,3.000000,0.000000,1.000000,1.500000
1746713612802.000000,0.782817,0.196913,1.000303,-0.000748,-0.232442,-1.635575,3.000000,0.000000,1.000000,1.500000
1746713612902.000000,0.784441,0.202521,1.002951,0.003673,-0.236306,-1.632423,3.000000,0.000000,1.000000,1.500000
1746713613002.000000,0.785780,0.207842,1.003547,0.001906,-0.237174,-1.649504,3.000000,0.000000,1.000000,1.500000
1746713613102.000000,0.786819,0.211996,1.002636,-0.012490,-0.235842,-1.650692,3.000000,0.000000,1.000000,1.500000
1746713613202.000000,0.788947,0.219818,1.000088,0.001121,-0.231144,-1.642869,3.000000,0.000000,1.000000,1.500000
1746713613303.000000,0.790006,0.224574,0.998755,0.009093,-0.233506,-1.632480,3.000000,0.000000,1.000000,1.500000
1746713613403.000000,0.790998,0.231402,0.997322,0.013828,-0.234525,-1.626602,3.000000,0.000000,1.000000,1.500000
1746713613503.000000,0.791336,0.236695,0.996025,0.012179,-0.238323,-1.643730,3.000000,0.000000,1.000000,1.500000
1746713613603.000000,0.791157,0.241390,0.994883,0.001674,-0.233473,-1.656246,3.000000,0.000000,1.000000,1.500000
1746713613704.000000,0.790590,0.244571,0.993314,0.008564,-0.236075,-1.652176,3.000000,0.000000,1.000000,1.500000
1746713613804.000000,0.788300,0.246829,0.991268,-0.018454,-0.233353,-1.643481,3.000000,0.000000,1.000000,1.500000
1746713613904.000000,0.785154,0.247698,0.989777,-0.020190,-0.221683,-1.637032,3.000000,0.000000,1.000000,1.500000
1746713614005.000000,0.780620,0.248145,0.988788,-0.032184,-0.229340,-1.629457,3.000000,0.000000,1.000000,1.500000
1746713614105.000000,0.775392,0.247597,0.988244,-0.013749,-0.223912,-1.646246,3.000000,0.000000,1.000000,1.500000
1746713614206.000000,0.770460,0.247475,0.986735,-0.027890,-0.214740,-1.652999,3.000000,0.000000,1.000000,1.500000
1746713614306.000000,0.765928,0.249075,0.983515,-0.026483,-0.214018,-1.645173,3.000000,0.000000,1.000000,1.500000
1746713614406.000000,0.761010,0.253515,0.980014,-0.028083,-0.240979,-1.634300,3.000000,0.000000,1.000000,1.500000
1746713614507.000000,0.755779,0.259692,0.975547,0.015145,-0.196133,-1.628185,3.000000,0.000000,1.000000,1.500000
1746713614607.000000,0.749356,0.264671,0.968614,0.016394,-0.228051,-1.618822,3.000000,0.000000,1.000000,1.500000
1746713614708.000000,0.745032,0.268515,0.959931,-0.008310,-0.223882,-1.610089,3.000000,0.000000,1.000000,1.500000
1746713614808.000000,0.739845,0.272526,0.953385,-0.027007,-0.236755,-1.605136,3.000000,0.000000,1.000000,1.500000
1746713614908.000000,0.732739,0.275650,0.951585,0.007840,-0.223728,-1.609640,3.000000,0.000000,1.000000,1.500000
1746713615009.000000,0.723735,0.278279,0.950710,-0.016865,-0.170736,-1.625029,3.000000,0.000000,1.000000,1.500000
1746713615109.000000,0.717625,0.279116,0.952948,-0.044602,-0.160938,-1.662689,3.000000,0.000000,1.000000,1.500000
1746713615209.000000,0.716363,0.282238,0.960079,-0.028564,-0.198413,-1.699423,3.000000,0.000000,1.000000,1.500000
1746713615309.000000,0.717766,0.288405,0.968863,-0.012308,-0.234191,-1.714419,3.000000,0.000000,1.000000,1.500000
1746713615409.000000,0.717655,0.293832,0.978561,0.011386,-0.243929,-1.725108,3.000000,0.000000,1.000000,1.500000
1746713615510.000000,0.717969,0.299559,0.989374,-0.008287,-0.217900,-1.735669,3.000000,0.000000,1.000000,1.500000
1746713615610.000000,0.716344,0.304577,0.996590,-0.020661,-0.231020,-1.738208,3.000000,0.000000,1.000000,1.500000
1746713615710.000000,0.713152,0.311118,1.000765,-0.009098,-0.234021,-1.728961,3.000000,0.000000,1.000000,1.500000
1746713615810.000000,0.708160,0.318028,1.003657,0.012785,-0.222184,-1.725157,3.000000,0.000000,1.000000,1.500000
1746713615910.000000,0.701657,0.325201,1.004739,0.018100,-0.209935,-1.703557,3.000000,0.000000,1.000000,1.500000
1746713616011.000000,0.695879,0.331576,1.003278,0.022319,-0.208228,-1.689649,3.000000,0.000000,1.000000,1.500000
1746713616111.000000,0.690144,0.338179,1.000321,0.023819,-0.214390,-1.671416,3.000000,0.000000,1.000000,1.500000
1746713616211.000000,0.685657,0.343678,0.998104,0.027633,-0.220906,-1.655788,3.000000,0.000000,1.000000,1.500000
1746713616311.000000,0.681466,0.348204,0.996668,0.022192,-0.217731,-1.634217,3.000000,0.000000,1.000000,1.500000
1746713616412.000000,0.678078,0.351908,0.996502,0.009603,-0.216025,-1.629599,3.000000,0.000000,1.000000,1.500000
1746713616512.000000,0.675803,0.354651,0.997024,0.027212,-0.224973,-1.652291,3.000000,0.000000,1.000000,1.500000
1746713616612.000000,0.675084,0.356944,0.998159,0.031213,-0.220110,-1.658051,3.000000,0.000000,1.000000,1.500000
1746713616712.000000,0.675612,0.358306,1.000053,0.029570,-0.227884,-1.639233,3.000000,0.000000,1.000000,1.500000
1746713616812.000000,0.676795,0.359394,1.001965,0.017181,-0.235853,-1.624469,3.000000,0.000000,1.000000,1.500000
1746713616912.000000,0.678866,0.357817,1.003379,0.014622,-0.243730,-1.635696,3.000000,0.000000,1.000000,1.500000
1746713617012.000000,0.681349,0.354611,1.005735,0.024388,-0.236456,-1.649540,3.000000,0.000000,1.000000,1.500000
1746713617113.000000,0.684236,0.350853,1.008773,0.024070,-0.232450,-1.644922,3.000000,0.000000,1.000000,1.500000
1746713617213.000000,0.687296,0.346385,1.012775,0.020738,-0.242513,-1.621721,3.000000,0.000000,1.000000,1.500000
1746713617313.000000,0.690533,0.341451,1.016704,0.016571,-0.245178,-1.603914,3.000000,0.000000,1.000000,1.500000
1746713617413.000000,0.693767,0.335040,1.020307,0.034111,-0.245414,-1.612078,3.000000,0.000000,1.000000,1.500000
1746713617514.000000,0.697120,0.327378,1.025612,0.039196,-0.243356,-1.617401,3.000000,0.000000,1.000000,1.500000
1746713617614.000000,0.700685,0.319171,1.031773,0.016712,-0.238912,-1.614851,3.000000,0.000000,1.000000,1.500000
1746713617714.000000,0.704570,0.309662,1.037413,0.017214,-0.237220,-1.621774,3.000000,0.000000,1.000000,1.500000
1746713617814.000000,0.708812,0.300422,1.041910,0.021702,-0.245126,-1.631036,3.000000,0.000000,1.000000,1.500000
1746713617914.000000,0.713319,0.290911,1.046021,0.014440,-0.246659,-1.638014,3.000000,0.000000,1.000000,1.500000
1746713618015.000000,0.717852,0.282009,1.048821,0.006532,-0.241331,-1.643721,3.000000,0.000000,1.000000,1.500000
1746713618115.000000,0.720915,0.275697,1.049602,-0.008304,-0.249338,-1.642605,3.000000,0.000000,1.000000,1.500000
1746713618215.000000,0.725613,0.267078,1.051476,0.010116,-0.239536,-1.631231,3.000000,0.000000,1.000000,1.500000
1746713618316.000000,0.729523,0.259520,1.053007,0.015529,-0.238997,-1.613641,3.000000,0.000000,1.000000,1.500000
1746713618416.000000,0.733057,0.251253,1.053093,0.024393,-0.248475,-1.618918,3.000000,0.000000,1.000000,1.500000
1746713618516.000000,0.736209,0.242765,1.052789,0.016030,-0.240432,-1.627162,3.000000,0.000000,1.000000,1.500000
1746713618617.000000,0.738662,0.234089,1.051649,0.010546,-0.240929,-1.638400,3.000000,0.000000,1.000000,1.500000
1746713618717.000000,0.741045,0.224049,1.050015,0.009802,-0.234240,-1.647126,3.000000,0.000000,1.000000,1.500000
1746713618817.000000,0.742225,0.213837,1.049256,0.000056,-0.255591,-1.656894,3.000000,0.000000,1.000000,1.500000
1746713618917.000000,0.743332,0.202641,1.050812,0.012611,-0.236696,-1.640404,3.000000,0.000000,1.000000,1.500000
1746713619018.000000,0.743177,0.190988,1.054222,-0.005548,-0.243164,-1.621220,3.000000,0.000000,1.000000,1.500000
1746713619118.000000,0.742796,0.178673,1.058570,-0.000724,-0.236972,-1.638346,3.000000,0.000000,1.000000,1.500000
1746713619218.000000,0.742099,0.166167,1.063034,-0.003310,-0.236569,-1.655568,3.000000,0.000000,1.000000,1.500000
1746713619318.000000,0.741473,0.154855,1.066278,-0.022301,-0.229082,-1.666637,3.000000,0.000000,1.000000,1.500000
1746713619419.000000,0.740860,0.144223,1.068299,-0.018768,-0.225914,-1.659816,3.000000,0.000000,1.000000,1.500000
1746713619519.000000,0.740038,0.134878,1.068726,-0.012390,-0.233248,-1.644709,3.000000,0.000000,1.000000,1.500000
1746713619619.000000,0.739254,0.126573,1.066739,-0.022588,-0.232811,-1.624814,3.000000,0.000000,1.000000,1.500000
1746713619719.000000,0.738680,0.118296,1.063963,-0.009805,-0.225537,-1.614326,3.000000,0.000000,1.000000,1.500000
1746713619819.000000,0.737704,0.110283,1.059073,-0.005560,-0.232625,-1.623423,3.000000,0.000000,1.000000,1.500000
1746713619920.000000,0.737126,0.102984,1.051802,-0.024225,-0.227862,-1.632231,3.000000,0.000000,1.000000,1.500000
1746713620020.000000,0.736653,0.095291,1.043592,-0.031816,-0.227956,-1.646667,3.000000,0.000000,1.000000,1.500000
1746713620120.000000,0.736818,0.088473,1.036345,-0.019900,-0.224164,-1.655172,3.000000,0.000000,1.000000,1.500000
1746713620220.000000,0.737547,0.082325,1.029161,-0.017353,-0.223684,-1.634660,3.000000,0.000000,1.000000,1.500000
1746713620320.000000,0.737945,0.076302,1.021880,-0.009804,-0.231800,-1.620942,3.000000,0.000000,1.000000,1.500000
1746713620421.000000,0.738347,0.070485,1.014808,-0.000615,-0.226508,-1.628769,3.000000,0.000000,1.000000,1.500000
1746713620521.000000,0.738958,0.064278,1.010112,-0.002752,-0.219966,-1.634834,3.000000,0.000000,1.000000,1.500000
1746713620621.000000,0.739572,0.057679,1.007299,-0.009902,-0.221537,-1.638148,3.000000,0.000000,1.000000,1.500000
1746713620721.000000,0.740508,0.050849,1.005038,-0.019835,-0.226623,-1.645123,3.000000,0.000000,1.000000,1.500000
1746713620822.000000,0.741903,0.044141,1.002977,-0.013430,-0.225149,-1.641645,3.000000,0.000000,1.000000,1.500000
1746713620922.000000,0.743496,0.037979,1.001582,-0.010163,-0.227636,-1.617721,3.000000,0.000000,1.000000,1.500000
1746713621022.000000,0.744832,0.032181,0.999571,-0.002851,-0.227330,-1.599851,3.000000,0.000000,1.000000,1.500000
1746713621122.000000,0.746087,0.026431,0.995859,-0.004910,-0.231818,-1.600227,3.000000,0.000000,1.000000,1.500000
1746713725812.000000,-0.504002,0.225991,0.064996,0.117357,-0.072740,-0.203120,0.000000,0.000000,1.000000,0.000000
1746713725913.000000,-0.503986,0.226029,0.065130,0.123325,-0.074328,-0.205020,0.000000,0.000000,1.000000,0.000000
1746713726013.000000,-0.503879,0.226004,0.065155,0.122978,-0.075271,-0.206331,0.000000,0.000000,1.000000,0.000000
1746713726113.000000,-0.504299,0.226017,0.064758,0.110298,-0.068817,-0.199523,0.000000,0.000000,1.000000,0.000000
1746713726214.000000,-0.504021,0.225632,0.065517,0.126070,-0.070358,-0.197588,0.000000,0.000000,1.000000,0.000000
1746713726314.000000,-0.504591,0.226210,0.064436,0.132283,-0.076452,-0.211407,0.000000,0.000000,1.000000,0.000000
1746713726414.000000,-0.504416,0.225960,0.064757,0.113053,-0.065171,-0.195109,0.000000,0.000000,1.000000,0.000000
1746713726514.000000,-0.504426,0.226058,0.064478,0.128124,-0.076624,-0.210394,0.000000,0.000000,1.000000,0.000000
1746713726615.000000,-0.504501,0.226303,0.064397,0.130908,-0.078224,-0.213962,0.000000,0.000000,1.000000,0.000000
1746713726715.000000,-0.504926,0.226166,0.064055,0.123106,-0.068925,-0.203280,0.000000,0.000000,1.000000,0.000000
1746713726815.000000,-0.504012,0.226030,0.065100,0.123958,-0.073933,-0.204543,0.000000,0.000000,1.000000,0.000000
1746713726915.000000,-0.504295,0.226114,0.064778,0.117727,-0.071869,-0.201256,0.000000,0.000000,1.000000,0.000000
1746713727015.000000,-0.504067,0.225927,0.065107,0.120094,-0.072814,-0.203195,0.000000,0.000000,1.000000,0.000000
1746713727116.000000,-0.503889,0.226029,0.065297,0.121356,-0.075445,-0.205423,0.000000,0.000000,1.000000,0.000000
1746713727216.000000,-0.504521,0.226216,0.064401,0.135520,-0.077663,-0.212960,0.000000,0.000000,1.000000,0.000000
1746713727316.000000,-0.504850,0.226216,0.064067,0.126304,-0.073779,-0.208268,0.000000,0.000000,1.000000,0.000000
1746713727416.000000,-0.504481,0.226205,0.064372,0.132598,-0.079794,-0.216501,0.000000,0.000000,1.000000,0.000000
1746713727517.000000,-0.503571,0.225743,0.065491,0.118761,-0.078385,-0.197906,0.000000,0.000000,1.000000,0.000000
1746713727617.000000,-0.503934,0.225922,0.065154,0.120425,-0.073956,-0.204810,0.000000,0.000000,1.000000,0.000000
1746713727717.000000,-0.504472,0.226282,0.064469,0.133845,-0.078348,-0.213525,0.000000,0.000000,1.000000,0.000000
1746713727817.000000,-0.503880,0.226000,0.065151,0.120987,-0.075113,-0.204666,0.000000,0.000000,1.000000,0.000000
1746713727917.000000,-0.504251,0.226001,0.064699,0.120162,-0.071013,-0.201605,0.000000,0.000000,1.000000,0.000000
1746713728018.000000,-0.504401,0.226268,0.064474,0.133954,-0.078443,-0.212998,0.000000,0.000000,1.000000,0.000000
1746713728118.000000,-0.504209,0.226055,0.064817,0.116397,-0.071159,-0.200910,0.000000,0.000000,1.000000,0.000000
1746713728219.000000,-0.503846,0.225980,0.065218,0.123680,-0.075092,-0.205954,0.000000,0.000000,1.000000,0.000000
1746713728319.000000,-0.504616,0.226074,0.064386,0.133542,-0.077639,-0.211906,0.000000,0.000000,1.000000,0.000000
1746713728419.000000,-0.503888,0.226037,0.065263,0.123898,-0.076708,-0.204813,0.000000,0.000000,1.000000,0.000000
1746713728519.000000,-0.503919,0.225963,0.065163,0.126700,-0.074754,-0.205008,0.000000,0.000000,1.000000,0.000000
1746713728620.000000,-0.504387,0.226214,0.064452,0.129985,-0.078105,-0.214121,0.000000,0.000000,1.000000,0.000000
1746713728720.000000,-0.503158,0.225836,0.066074,0.107604,-0.070314,-0.197016,0.000000,0.000000,1.000000,0.000000
1746713728820.000000,-0.504582,0.226330,0.064367,0.136522,-0.078834,-0.211418,0.000000,0.000000,1.000000,0.000000
1746713728920.000000,-0.503781,0.226000,0.065285,0.124143,-0.076953,-0.207021,0.000000,0.000000,1.000000,0.000000
1746713729021.000000,-0.503904,0.226008,0.065180,0.120598,-0.074195,-0.205053,0.000000,0.000000,1.000000,0.000000
1746713729121.000000,-0.504188,0.226090,0.064834,0.118333,-0.071819,-0.202356,0.000000,0.000000,1.000000,0.000000
1746713729221.000000,-0.503909,0.225850,0.065270,0.120910,-0.072860,-0.202097,0.000000,0.000000,1.000000,0.000000
1746713729322.000000,-0.504098,0.226009,0.064873,0.115414,-0.072601,-0.202380,0.000000,0.000000,1.000000,0.000000
1746713729422.000000,-0.504027,0.225899,0.065082,0.119016,-0.072977,-0.203456,0.000000,0.000000,1.000000,0.000000
1746713729522.000000,-0.504017,0.226047,0.065033,0.122665,-0.075386,-0.205851,0.000000,0.000000,1.000000,0.000000
1746713729623.000000,-0.503936,0.226036,0.065117,0.125169,-0.077219,-0.206907,0.000000,0.000000,1.000000,0.000000
1746713729723.000000,-0.503944,0.225891,0.065129,0.120174,-0.072196,-0.202685,0.000000,0.000000,1.000000,0.000000
1746713729823.000000,-0.504714,0.226292,0.064133,0.128322,-0.075783,-0.209748,0.000000,0.000000,1.000000,0.000000
1746713729924.000000,-0.503798,0.225966,0.065326,0.122444,-0.075236,-0.204573,0.000000,0.000000,1.000000,0.000000
1746713730024.000000,-0.503756,0.226042,0.065244,0.119054,-0.076789,-0.205346,0.000000,0.000000,1.000000,0.000000
1746713730124.000000,-0.504826,0.226301,0.064004,0.126444,-0.074171,-0.207427,0.000000,0.000000,1.000000,0.000000
1746713730224.000000,-0.504237,0.226218,0.064652,0.131502,-0.079846,-0.214112,0.000000,0.000000,1.000000,0.000000
1746713730325.000000,-0.504550,0.226115,0.064446,0.131970,-0.076224,-0.210668,0.000000,0.000000,1.000000,0.000000
1746713730425.000000,-0.504325,0.226268,0.064548,0.129132,-0.077958,-0.212109,0.000000,0.000000,1.000000,0.000000
1746713730525.000000,-0.503917,0.226127,0.065070,0.120820,-0.075909,-0.205402,0.000000,0.000000,1.000000,0.000000
1746713730626.000000,-0.503699,0.226111,0.065173,0.119029,-0.072521,-0.204010,0.000000,0.000000,1.000000,0.000000
1746713730726.000000,-0.504114,0.225978,0.065064,0.123304,-0.072267,-0.201455,0.000000,0.000000,1.000000,0.000000
1746713730826.000000,-0.503915,0.226020,0.065137,0.125836,-0.076659,-0.206880,0.000000,0.000000,1.000000,0.000000
1746713730926.000000,-0.504148,0.226050,0.064794,0.116016,-0.071915,-0.201155,0.000000,0.000000,1.000000,0.000000
1746713731026.000000,-0.503901,0.225986,0.065178,0.122297,-0.075517,-0.204827,0.000000,0.000000,1.000000,0.000000
1746713731126.000000,-0.503906,0.226078,0.065124,0.124092,-0.074368,-0.205356,0.000000,0.000000,1.000000,0.000000
1746713731227.000000,-0.503958,0.226091,0.065173,0.124157,-0.075685,-0.205330,0.000000,0.000000,1.000000,0.000000
1746713731327.000000,-0.504524,0.226163,0.064342,0.129019,-0.074946,-0.210104,0.000000,0.000000,1.000000,0.000000
1746713731427.000000,-0.504121,0.225928,0.065075,0.122888,-0.071430,-0.201015,0.000000,0.000000,1.000000,0.000000
1746713731527.000000,-0.504170,0.226040,0.064860,0.117450,-0.071718,-0.201322,0.000000,0.000000,1.000000,0.000000
1746713731628.000000,-0.504018,0.226036,0.065053,0.122419,-0.073654,-0.203837,0.000000,0.000000,1.000000,0.000000
1746713731728.000000,-0.503948,0.225862,0.065135,0.120336,-0.073687,-0.203416,0.000000,0.000000,1.000000,0.000000
1746713731828.000000,-0.504450,0.226195,0.064365,0.132284,-0.077622,-0.212643,0.000000,0.000000,1.000000,0.000000
1746713731928.000000,-0.503919,0.226069,0.065022,0.119768,-0.076323,-0.206024,0.000000,0.000000,1.000000,0.000000
1746713732028.000000,-0.504567,0.226179,0.064346,0.127887,-0.075468,-0.211292,0.000000,0.000000,1.000000,0.000000
1746713732129.000000,-0.504023,0.225930,0.064816,0.127820,-0.080926,-0.204936,0.000000,0.000000,1.000000,0.000000
1746713732229.000000,-0.503890,0.225991,0.065157,0.124492,-0.074786,-0.205397,0.000000,0.000000,1.000000,0.000000
1746713789620.000000,-0.360757,-0.094899,0.826788,0.362291,-0.095519,-0.152889,0.000000,0.000000,1.000000,0.000000
1746713789720.000000,-0.363017,-0.095943,0.829070,0.374204,-0.095626,-0.155694,3.000000,0.000000,1.000000,1.500000
1746713789821.000000,-0.365006,-0.096853,0.830975,0.385329,-0.091543,-0.154784,3.000000,0.000000,1.000000,1.500000
1746713789921.000000,-0.367034,-0.097605,0.831803,0.370479,-0.097375,-0.157231,3.000000,0.000000,1.000000,1.500000
1746713790021.000000,-0.368758,-0.098952,0.832146,0.381688,-0.080227,-0.160441,3.000000,0.000000,1.000000,1.500000
1746713790121.000000,-0.369614,-0.099394,0.834535,0.361722,-0.075956,-0.153490,3.000000,0.000000,1.000000,1.500000
